{"class":"VERSION","release":"3.16","rev":"3.16-4","proto_major":3,"proto_minor":11}
{"class":"DEVICES","devices":[{"class":"DEVICE","path":"/dev/serial0","driver":"u-blox","subtype":"SW ROM CORE 3.01 (107888),HW 00080000,FWVER=SPG 3.01,PROTVER=18","activated":"2018-12-04T18:13:45.176Z","flags":1,"native":1,"bps":9600,"parity":"N","stopbits":1,"cycle":1.00,"mincycle":0.25}]}
{"class":"WATCH","enable":true,"json":false,"nmea":true,"raw":0,"scaled":false,"timing":false,"split24":false,"pps":false}
$GPZDA,181346.00,04,12,2018,00,00*63
$GPGGA,181346,5004.0809,N,01954.4422,E,1,07,1.40,206.80,M,41.914,M,,*45
$GPRMC,181346,A,5004.0809,N,01954.4422,E,0.4766,51.953,041218,,*1B
$GPGSA,A,3,74,75,,,,,,,,,,,,,,,,,,,,,,,,,,,,,,,,,,,,,,,,,,,,,,,,,5.2,1.4,5.0*34
$GPZDA,181347.00,04,12,2018,00,00*62
$GPGGA,181347,5004.0811,N,01954.4424,E,1,07,1.40,206.51,M,41.914,M,,*47
$GPRMC,181347,A,5004.0811,N,01954.4424,E,0.3587,335.946,041218,,*2A
$GPGSA,A,3,74,75,,,,,,,,,,,,,,,,,,,,,,,,,,,,,,,,,,,,,,,,,,,,,,,,,5.2,1.4,5.0*34
$GPZDA,181348.00,04,12,2018,00,00*6D
$GPGGA,181348,5004.0812,N,01954.4426,E,1,07,1.40,207.20,M,41.914,M,,*4E
$GPRMC,181348,A,5004.0812,N,01954.4426,E,0.1405,188.654,041218,,*25
$GPGSA,A,3,74,75,,,,,,,,,,,,,,,,,,,,,,,,,,,,,,,,,,,,,,,,,,,,,,,,,5.2,1.4,5.0*34
$GPZDA,181349.00,04,12,2018,00,00*6C
$GPGGA,181349,5004.0813,N,01954.4429,E,1,07,1.40,208.39,M,41.914,M,,*46
$GPRMC,181349,A,5004.0813,N,01954.4429,E,0.3975,88.702,041218,,*11
$GPGSA,A,3,74,75,,,,,,,,,,,,,,,,,,,,,,,,,,,,,,,,,,,,,,,,,,,,,,,,,5.2,1.4,5.0*34
$GPZDA,181350.00,04,12,2018,00,00*64
$GPGGA,181350,5004.0813,N,01954.4430,E,1,07,1.40,208.64,M,41.914,M,,*4E
$GPRMC,181350,A,5004.0813,N,01954.4430,E,0.0222,84.159,041218,,*1F
$GPGSA,A,3,74,75,,,,,,,,,,,,,,,,,,,,,,,,,,,,,,,,,,,,,,,,,,,,,,,,,5.2,1.4,5.0*34
$GPZDA,181351.00,04,12,2018,00,00*65
$GPGGA,181351,5004.0814,N,01954.4433,E,1,07,1.40,209.38,M,41.914,M,,*43
$GPRMC,181351,A,5004.0814,N,01954.4433,E,0.2095,80.091,041218,,*17
$GPGSA,A,3,74,75,,,,,,,,,,,,,,,,,,,,,,,,,,,,,,,,,,,,,,,,,,,,,,,,,5.2,1.4,5.0*34
$GPZDA,181352.00,04,12,2018,00,00*66
$GPGGA,181352,5004.0817,N,01954.4428,E,1,07,1.40,210.27,M,41.914,M,,*4F
$GPRMC,181352,A,5004.0817,N,01954.4428,E,0.9413,307.277,041218,,*2A
$GPGSA,A,3,74,75,,,,,,,,,,,,,,,,,,,,,,,,,,,,,,,,,,,,,,,,,,,,,,,,,5.2,1.4,5.0*34
$GPGSV,3,1,09,10,13,322,18,12,17,231,13,13,47,168,30,15,60,235,26*73
$GPGSV,3,2,09,17,46,099,22,24,51,290,21,28,32,056,22,74,56,048,20*79
$GPGSV,3,3,09,75,53,288,21*45
$GPZDA,181353.00,04,12,2018,00,00*67
$GPGGA,181353,5004.0821,N,01954.4427,E,1,06,1.40,210.91,M,41.914,M,,*48
$GPRMC,181353,A,5004.0821,N,01954.4427,E,1.0523,325.134,041218,,*2F
$GPGSA,A,3,13,15,17,24,28,74,75,,,,,,,,,,,,,,,,,,,,,,,,,,,,,,,,,,,,,,,,,,,,5.2,1.4,5.0*38
$GPGBS,181353,13.67,M,15.86,M,115.69,M*30
$GPZDA,181354.00,04,12,2018,00,00*60
$GPGGA,181354,5004.0821,N,01954.4428,E,1,06,1.50,211.20,M,41.914,M,,*4A
$GPRMC,181354,A,5004.0821,N,01954.4428,E,0.5551,341.499,041218,,*26
$GPGSA,A,3,13,15,17,24,28,74,75,,,,,,,,,,,,,,,,,,,,,,,,,,,,,,,,,,,,,,,,,,,,5.3,1.5,5.0*38
$GPZDA,181355.00,04,12,2018,00,00*61
$GPGGA,181355,5004.0822,N,01954.4430,E,1,06,1.50,211.88,M,41.914,M,,*43
$GPRMC,181355,A,5004.0822,N,01954.4430,E,0.4164,19.817,041218,,*1A
$GPGSA,A,3,13,15,17,24,28,74,75,,,,,,,,,,,,,,,,,,,,,,,,,,,,,,,,,,,,,,,,,,,,5.3,1.5,5.0*38
$GPGBS,181355,13.67,M,15.86,M,115.92,M*32
$GPZDA,181356.00,04,12,2018,00,00*62
$GPGGA,181356,5004.0826,N,01954.4434,E,1,06,1.50,212.96,M,41.914,M,,*4C
$GPRMC,181356,A,5004.0826,N,01954.4434,E,1.1095,23.521,041218,,*13
$GPGSA,A,3,13,15,17,24,28,74,75,,,,,,,,,,,,,,,,,,,,,,,,,,,,,,,,,,,,,,,,,,,,5.3,1.5,5.0*38
$GPZDA,181357.00,04,12,2018,00,00*63
$GPGGA,181357,5004.0828,N,01954.4438,E,1,06,1.50,213.57,M,41.914,M,,*43
$GPRMC,181357,A,5004.0828,N,01954.4438,E,1.1342,30.987,041218,,*1B
$GPGSA,A,3,13,15,17,24,28,74,75,,,,,,,,,,,,,,,,,,,,,,,,,,,,,,,,,,,,,,,,,,,,5.3,1.5,5.0*38
$GPGBS,181357,13.67,M,15.86,M,115.92,M*30
$GPZDA,181358.00,04,12,2018,00,00*6C
$GPGGA,181358,5004.0825,N,01954.4435,E,1,06,1.50,216.13,M,41.914,M,,*49
$GPRMC,181358,A,5004.0825,N,01954.4435,E,0.1365,326.190,041218,,*2A
$GPGSA,A,3,13,15,17,24,28,74,75,,,,,,,,,,,,,,,,,,,,,,,,,,,,,,,,,,,,,,,,,,,,5.3,1.5,5.0*38
$GPZDA,181359.00,04,12,2018,00,00*6D
$GPGGA,181359,5004.0821,N,01954.4439,E,1,06,1.50,218.64,M,41.914,M,,*4E
$GPRMC,181359,A,5004.0821,N,01954.4439,E,0.5950,164.996,041218,,*21
$GPGSA,A,3,13,15,17,24,28,74,75,,,,,,,,,,,,,,,,,,,,,,,,,,,,,,,,,,,,,,,,,,,,5.2,1.5,5.0*39
$GPGBS,181359,13.67,M,15.86,M,115.92,M*3E
$GPZDA,181400.00,04,12,2018,00,00*66
$GPGGA,181400,5004.0824,N,01954.4446,E,1,06,1.50,221.36,M,41.914,M,,*45
$GPRMC,181400,A,5004.0824,N,01954.4446,E,0.5648,101.239,041218,,*2C
$GPGSA,A,3,13,15,17,24,28,74,75,,,,,,,,,,,,,,,,,,,,,,,,,,,,,,,,,,,,,,,,,,,,5.2,1.5,5.0*39
$GPZDA,181401.00,04,12,2018,00,00*67
$GPGGA,181401,5004.0818,N,01954.4439,E,1,06,1.50,221.00,M,41.914,M,,*46
$GPRMC,181401,A,5004.0818,N,01954.4439,E,0.8919,191.066,041218,,*2D
$GPGSA,A,3,13,15,17,24,28,74,75,,,,,,,,,,,,,,,,,,,,,,,,,,,,,,,,,,,,,,,,,,,,5.2,1.5,5.0*39
$GPGBS,181401,13.67,M,15.86,M,115.92,M*34
$GPZDA,181402.00,04,12,2018,00,00*64
$GPGGA,181402,5004.0822,N,01954.4438,E,1,06,1.50,221.20,M,41.914,M,,*4F
$GPRMC,181402,A,5004.0822,N,01954.4438,E,0.2804,286.764,041218,,*21
$GPGSA,A,3,13,15,17,24,28,74,75,,,,,,,,,,,,,,,,,,,,,,,,,,,,,,,,,,,,,,,,,,,,5.2,1.5,5.0*39
$GPGSV,2,1,08,10,13,322,14,12,17,231,18,13,47,168,30,15,60,235,26*74
$GPGSV,2,2,08,17,46,099,18,24,51,290,25,28,32,056,22,74,56,048,14*73
$GPZDA,181403.00,04,12,2018,00,00*65
$GPGGA,181403,5004.0823,N,01954.4444,E,1,06,1.50,221.90,M,41.914,M,,*4F
$GPRMC,181403,A,5004.0823,N,01954.4444,E,0.3053,58.820,041218,,*1F
$GPGSA,A,3,13,15,17,24,28,74,,,,,,,,,,,,,,,,,,,,,,,,,,,,,,,,,,,,,,,,,,,,,5.2,1.5,5.0*3B
$GPGBS,181403,13.67,M,15.86,M,115.69,M*32
$GPZDA,181404.00,04,12,2018,00,00*62
$GPGGA,181404,5004.0823,N,01954.4445,E,1,06,1.50,222.11,M,41.914,M,,*43
$GPRMC,181404,A,5004.0823,N,01954.4445,E,0.1656,69.359,041218,,*1F
$GPGSA,A,3,13,15,17,24,28,74,,,,,,,,,,,,,,,,,,,,,,,,,,,,,,,,,,,,,,,,,,,,,5.2,1.5,5.0*3B
$GPZDA,181405.00,04,12,2018,00,00*63
$GPGGA,181405,5004.0825,N,01954.4448,E,1,06,1.50,222.89,M,41.914,M,,*48
$GPRMC,181405,A,5004.0825,N,01954.4448,E,0.3514,42.608,041218,,*1A
$GPGSA,A,3,13,15,17,24,28,74,,,,,,,,,,,,,,,,,,,,,,,,,,,,,,,,,,,,,,,,,,,,,5.2,1.5,5.0*3B
$GPGBS,181405,13.67,M,15.86,M,115.69,M*34
$GPZDA,181406.00,04,12,2018,00,00*60
$GPGGA,181406,5004.0825,N,01954.4450,E,1,06,1.50,224.36,M,41.914,M,,*40
$GPRMC,181406,A,5004.0825,N,01954.4450,E,0.2838,29.166,041218,,*10
$GPGSA,A,3,13,15,17,24,28,74,,,,,,,,,,,,,,,,,,,,,,,,,,,,,,,,,,,,,,,,,,,,,5.2,1.5,5.0*3B
$GPZDA,181407.00,04,12,2018,00,00*61
$GPGGA,181407,5004.0828,N,01954.4460,E,1,06,1.50,226.61,M,41.914,M,,*4F
$GPRMC,181407,A,5004.0828,N,01954.4460,E,0.8761,60.298,041218,,*19
$GPGSA,A,3,13,15,17,24,28,74,,,,,,,,,,,,,,,,,,,,,,,,,,,,,,,,,,,,,,,,,,,,,5.2,1.5,5.0*3B
$GPGBS,181407,13.67,M,15.86,M,115.69,M*36
$GPZDA,181408.00,04,12,2018,00,00*6E
$GPGGA,181408,5004.0824,N,01954.4459,E,1,06,1.50,228.57,M,41.914,M,,*4D
$GPRMC,181408,A,5004.0824,N,01954.4459,E,0.4713,162.818,041218,,*28
$GPGSA,A,3,13,15,17,24,28,74,,,,,,,,,,,,,,,,,,,,,,,,,,,,,,,,,,,,,,,,,,,,,5.2,1.5,5.0*3B
$GPZDA,181409.00,04,12,2018,00,00*6F
$GPGGA,181409,5004.0820,N,01954.4459,E,1,06,1.50,231.22,M,41.914,M,,*42
$GPRMC,181409,A,5004.0820,N,01954.4459,E,0.9333,193.041,041218,,*2C
$GPGSA,A,3,13,15,17,24,28,74,,,,,,,,,,,,,,,,,,,,,,,,,,,,,,,,,,,,,,,,,,,,,5.2,1.5,5.0*3B
$GPGBS,181409,13.67,M,15.86,M,115.69,M*38
$GPZDA,181410.00,04,12,2018,00,00*67
$GPGGA,181410,5004.0814,N,01954.4453,E,1,06,1.50,231.56,M,41.914,M,,*44
$GPRMC,181410,A,5004.0814,N,01954.4453,E,1.5623,204.594,041218,,*20
$GPGSA,A,3,13,15,17,24,28,74,,,,,,,,,,,,,,,,,,,,,,,,,,,,,,,,,,,,,,,,,,,,,5.2,1.5,5.0*3B
$GPZDA,181411.00,04,12,2018,00,00*66
$GPGGA,181411,5004.0814,N,01954.4455,E,1,06,1.50,232.48,M,41.914,M,,*4F
$GPRMC,181411,A,5004.0814,N,01954.4455,E,0.8598,197.408,041218,,*25
$GPGSA,A,3,13,15,17,24,28,74,,,,,,,,,,,,,,,,,,,,,,,,,,,,,,,,,,,,,,,,,,,,,5.2,1.5,5.0*3B
$GPGBS,181411,13.67,M,15.86,M,115.69,M*31
$GPZDA,181412.00,04,12,2018,00,00*65
$GPGGA,181412,5004.0814,N,01954.4457,E,1,06,1.50,234.24,M,41.914,M,,*42
$GPRMC,181412,A,5004.0814,N,01954.4457,E,0.5332,191.324,041218,,*20
$GPGSA,A,3,13,15,17,24,28,74,,,,,,,,,,,,,,,,,,,,,,,,,,,,,,,,,,,,,,,,,,,,,5.2,1.5,5.0*3B
$GPGSV,2,1,07,12,17,231,18,13,47,168,30,15,60,235,26,17,46,099,17*7C
$GPGSV,2,2,07,24,51,290,21,28,32,056,14,74,56,048,18*4C
$GPZDA,181413.00,04,12,2018,00,00*64
$GPGGA,181413,5004.0813,N,01954.4464,E,1,06,1.50,238.17,M,41.914,M,,*48
$GPRMC,181413,A,5004.0813,N,01954.4464,E,0.7063,159.615,041218,,*20
$GPGSA,A,3,13,15,17,24,28,74,,,,,,,,,,,,,,,,,,,,,,,,,,,,,,,,,,,,,,,,,,,,,5.2,1.5,5.0*3B
$GPGBS,181413,13.67,M,15.86,M,115.69,M*33
$GPZDA,181414.00,04,12,2018,00,00*63
$GPGGA,181414,5004.0811,N,01954.4462,E,1,06,1.50,238.20,M,41.914,M,,*4F
$GPRMC,181414,A,5004.0811,N,01954.4462,E,0.8026,177.487,041218,,*28
$GPGSA,A,3,13,15,17,24,28,74,,,,,,,,,,,,,,,,,,,,,,,,,,,,,,,,,,,,,,,,,,,,,5.2,1.5,5.0*3B
$GPZDA,181415.00,04,12,2018,00,00*62
$GPGGA,181415,5004.0811,N,01954.4465,E,1,06,1.50,239.55,M,41.914,M,,*4A
$GPRMC,181415,A,5004.0811,N,01954.4465,E,0.5505,157.278,041218,,*23
$GPGSA,A,3,13,15,17,24,28,74,,,,,,,,,,,,,,,,,,,,,,,,,,,,,,,,,,,,,,,,,,,,,5.2,1.5,5.0*3B
$GPGBS,181415,13.67,M,15.86,M,115.69,M*35
$GPZDA,181416.00,04,12,2018,00,00*61
$GPGGA,181416,5004.0812,N,01954.4469,E,1,06,1.50,240.43,M,41.914,M,,*4F
$GPRMC,181416,A,5004.0812,N,01954.4469,E,0.4743,118.968,041218,,*2F
$GPGSA,A,3,13,15,17,24,28,74,,,,,,,,,,,,,,,,,,,,,,,,,,,,,,,,,,,,,,,,,,,,,5.2,1.5,5.0*3B
$GPZDA,181417.00,04,12,2018,00,00*60
$GPGGA,181417,5004.0813,N,01954.4468,E,1,06,1.50,239.46,M,41.914,M,,*45
$GPRMC,181417,A,5004.0813,N,01954.4468,E,0.1936,120.241,041218,,*2C
$GPGSA,A,3,13,15,17,24,28,74,,,,,,,,,,,,,,,,,,,,,,,,,,,,,,,,,,,,,,,,,,,,,5.2,1.5,5.0*3B
$GPGBS,181417,13.67,M,15.86,M,115.69,M*37
$GPZDA,181418.00,04,12,2018,00,00*6F
$GPGGA,181418,5004.0809,N,01954.4460,E,1,06,1.50,237.18,M,41.914,M,,*4C
$GPRMC,181418,A,5004.0809,N,01954.4460,E,0.7667,205.260,041218,,*2A
$GPGSA,A,3,13,15,17,24,28,74,,,,,,,,,,,,,,,,,,,,,,,,,,,,,,,,,,,,,,,,,,,,,5.2,1.5,5.0*3B
$GPZDA,181419.00,04,12,2018,00,00*6E
$GPGGA,181419,5004.0810,N,01954.4459,E,1,06,1.50,236.46,M,41.914,M,,*45
$GPRMC,181419,A,5004.0810,N,01954.4459,E,0.7070,201.362,041218,,*2E
$GPGSA,A,3,13,15,17,24,28,74,,,,,,,,,,,,,,,,,,,,,,,,,,,,,,,,,,,,,,,,,,,,,5.2,1.5,5.0*3B
$GPGBS,181419,13.67,M,15.86,M,115.46,M*34
$GPZDA,181420.00,04,12,2018,00,00*64
$GPGGA,181420,5004.0811,N,01954.4459,E,1,06,1.50,235.46,M,41.914,M,,*4D
$GPRMC,181420,A,5004.0811,N,01954.4459,E,0.3920,186.146,041218,,*25
$GPGSA,A,3,13,15,17,24,28,74,,,,,,,,,,,,,,,,,,,,,,,,,,,,,,,,,,,,,,,,,,,,,5.2,1.5,5.0*3B
$GPZDA,181421.00,04,12,2018,00,00*65
$GPGGA,181421,5004.0813,N,01954.4463,E,1,06,1.50,235.40,M,41.914,M,,*41
$GPRMC,181421,A,5004.0813,N,01954.4463,E,0.2880,84.024,041218,,*13
$GPGSA,A,3,13,15,17,24,28,74,,,,,,,,,,,,,,,,,,,,,,,,,,,,,,,,,,,,,,,,,,,,,5.2,1.5,5.0*3B
$GPGBS,181421,13.67,M,15.86,M,115.46,M*3F
$GPZDA,181422.00,04,12,2018,00,00*66
$GPGGA,181422,5004.0814,N,01954.4461,E,1,06,1.50,233.91,M,41.914,M,,*4D
$GPRMC,181422,A,5004.0814,N,01954.4461,E,0.0289,36.831,041218,,*11
$GPGSA,A,3,13,15,17,24,28,74,,,,,,,,,,,,,,,,,,,,,,,,,,,,,,,,,,,,,,,,,,,,,5.2,1.5,5.0*3B
$GPGSV,2,1,08,10,13,322,16,12,17,231,20,13,47,168,32,15,60,235,26*7F
$GPGSV,2,2,08,17,46,099,18,24,51,290,18,28,32,056,21,74,56,048,18*72
$GPZDA,181423.00,04,12,2018,00,00*67
$GPGGA,181423,5004.0816,N,01954.4463,E,1,06,1.50,234.37,M,41.914,M,,*47
$GPRMC,181423,A,5004.0816,N,01954.4463,E,0.2454,41.189,041218,,*1E
$GPGSA,A,3,13,15,17,24,28,74,,,,,,,,,,,,,,,,,,,,,,,,,,,,,,,,,,,,,,,,,,,,,5.2,1.5,5.0*3B
$GPGBS,181423,13.67,M,15.86,M,115.46,M*3D
$GPZDA,181424.00,04,12,2018,00,00*60
$GPGGA,181424,5004.0817,N,01954.4462,E,1,06,1.50,233.40,M,41.914,M,,*47
$GPRMC,181424,A,5004.0817,N,01954.4462,E,0.1440,40.510,041218,,*1A
$GPGSA,A,3,13,15,17,24,28,74,,,,,,,,,,,,,,,,,,,,,,,,,,,,,,,,,,,,,,,,,,,,,5.2,1.5,5.0*3B
$GPZDA,181425.00,04,12,2018,00,00*61
$GPGGA,181425,5004.0815,N,01954.4463,E,1,06,1.50,234.60,M,41.914,M,,*40
$GPRMC,181425,A,5004.0815,N,01954.4463,E,0.2987,160.986,041218,,*2D
$GPGSA,A,3,13,15,17,24,28,74,,,,,,,,,,,,,,,,,,,,,,,,,,,,,,,,,,,,,,,,,,,,,5.2,1.5,5.0*3B
$GPGBS,181425,13.67,M,15.86,M,115.46,M*3B
$GPZDA,181426.00,04,12,2018,00,00*62
$GPGGA,181426,5004.0817,N,01954.4465,E,1,06,1.50,234.26,M,41.914,M,,*45
$GPRMC,181426,A,5004.0817,N,01954.4465,E,0.3185,75.135,041218,,*14
$GPGSA,A,3,13,15,17,24,28,74,,,,,,,,,,,,,,,,,,,,,,,,,,,,,,,,,,,,,,,,,,,,,5.2,1.5,5.0*3B
$GPZDA,181427.00,04,12,2018,00,00*63
$GPGGA,181427,5004.0819,N,01954.4468,E,1,06,1.50,234.43,M,41.914,M,,*44
$GPRMC,181427,A,5004.0819,N,01954.4468,E,0.4285,58.622,041218,,*1C
$GPGSA,A,3,13,15,17,24,28,74,,,,,,,,,,,,,,,,,,,,,,,,,,,,,,,,,,,,,,,,,,,,,5.2,1.5,5.0*3B
$GPGBS,181427,13.67,M,15.86,M,115.46,M*39
$GPZDA,181428.00,04,12,2018,00,00*6C
$GPGGA,181428,5004.0820,N,01954.4466,E,1,06,1.50,232.65,M,41.914,M,,*4D
$GPRMC,181428,A,5004.0820,N,01954.4466,E,0.2794,98.451,041218,,*1E
$GPGSA,A,3,13,15,17,24,28,74,,,,,,,,,,,,,,,,,,,,,,,,,,,,,,,,,,,,,,,,,,,,,5.2,1.5,5.0*3B
$GPZDA,181429.00,04,12,2018,00,00*6D
$GPGGA,181429,5004.0817,N,01954.4461,E,1,06,1.50,232.53,M,41.914,M,,*4A
$GPRMC,181429,A,5004.0817,N,01954.4461,E,1.0713,208.426,041218,,*2B
$GPGSA,A,3,13,15,17,24,28,74,,,,,,,,,,,,,,,,,,,,,,,,,,,,,,,,,,,,,,,,,,,,,5.2,1.5,5.0*3B
$GPGBS,181429,13.67,M,15.86,M,115.46,M*37
$GPZDA,181430.00,04,12,2018,00,00*65
$GPGGA,181430,5004.0820,N,01954.4459,E,1,06,1.50,230.55,M,41.914,M,,*49
$GPRMC,181430,A,5004.0820,N,01954.4459,E,0.3885,240.995,041218,,*27
$GPGSA,A,3,13,15,17,24,28,74,,,,,,,,,,,,,,,,,,,,,,,,,,,,,,,,,,,,,,,,,,,,,5.2,1.5,5.0*3B
$GPZDA,181431.00,04,12,2018,00,00*64
$GPGGA,181431,5004.0824,N,01954.4465,E,1,06,1.50,230.37,M,41.914,M,,*47
$GPRMC,181431,A,5004.0824,N,01954.4465,E,0.4164,54.517,041218,,*1D
$GPGSA,A,3,13,15,17,24,28,74,,,,,,,,,,,,,,,,,,,,,,,,,,,,,,,,,,,,,,,,,,,,,5.2,1.5,5.0*3B
$GPGBS,181431,13.67,M,15.86,M,115.46,M*3E
$GPZDA,181432.00,04,12,2018,00,00*67
$GPGGA,181432,5004.0827,N,01954.4464,E,1,06,1.50,229.51,M,41.914,M,,*4E
$GPRMC,181432,A,5004.0827,N,01954.4464,E,0.6839,1.374,041218,,*2C
$GPGSA,A,3,13,15,17,24,28,74,,,,,,,,,,,,,,,,,,,,,,,,,,,,,,,,,,,,,,,,,,,,,5.2,1.5,5.0*3B
$GPGSV,2,1,07,12,17,231,19,13,47,168,31,15,60,235,27,17,46,099,17*7D
$GPGSV,2,2,07,24,51,290,22,28,32,056,18,74,56,049,18*42
$GPZDA,181433.00,04,12,2018,00,00*66
$GPGGA,181433,5004.0829,N,01954.4465,E,1,06,1.50,230.35,M,41.914,M,,*4A
$GPRMC,181433,A,5004.0829,N,01954.4465,E,0.6947,0.806,041218,,*25
$GPGSA,A,3,13,15,17,24,28,74,,,,,,,,,,,,,,,,,,,,,,,,,,,,,,,,,,,,,,,,,,,,,5.2,1.5,5.0*3B
$GPGBS,181433,13.67,M,15.86,M,115.46,M*3C
$GPZDA,181434.00,04,12,2018,00,00*61
$GPGGA,181434,5004.0830,N,01954.4461,E,1,06,1.50,230.12,M,41.914,M,,*44
$GPRMC,181434,A,5004.0830,N,01954.4461,E,0.6627,327.564,041218,,*28
$GPGSA,A,3,13,15,17,24,28,74,,,,,,,,,,,,,,,,,,,,,,,,,,,,,,,,,,,,,,,,,,,,,5.2,1.5,5.0*3B
$GPZDA,181435.00,04,12,2018,00,00*60
$GPGGA,181435,5004.0832,N,01954.4459,E,1,05,1.50,230.01,M,41.914,M,,*4D
$GPRMC,181435,A,5004.0832,N,01954.4459,E,0.5928,319.888,041218,,*21
$GPGSA,A,3,13,15,17,24,28,74,,,,,,,,,,,,,,,,,,,,,,,,,,,,,,,,,,,,,,,,,,,,,5.2,1.5,5.0*3B
$GPGBS,181435,13.67,M,15.86,M,115.23,M*39
$GPZDA,181436.00,04,12,2018,00,00*63
$GPGGA,181436,5004.0834,N,01954.4461,E,1,05,1.54,229.80,M,41.914,M,,*46
$GPRMC,181436,A,5004.0834,N,01954.4461,E,0.4241,335.735,041218,,*2D
$GPGSA,A,3,13,15,17,24,28,74,,,,,,,,,,,,,,,,,,,,,,,,,,,,,,,,,,,,,,,,,,,,,5.4,1.5,5.2*3F
$GPZDA,181437.00,04,12,2018,00,00*62
$GPGGA,181437,5004.0840,N,01954.4470,E,1,05,2.17,230.12,M,41.913,M,,*44
$GPRMC,181437,A,5004.0840,N,01954.4470,E,1.2384,27.788,041218,,*16
$GPGSA,A,3,13,15,17,24,28,74,,,,,,,,,,,,,,,,,,,,,,,,,,,,,,,,,,,,,,,,,,,,,9.1,2.2,8.8*35
$GPGBS,181437,13.67,M,15.86,M,203.32,M*3F
$GPZDA,181438.00,04,12,2018,00,00*6D
$GPGGA,181438,5004.0838,N,01954.4468,E,1,04,2.17,230.01,M,41.913,M,,*4E
$GPRMC,181438,A,5004.0838,N,01954.4468,E,0.2762,38.781,041218,,*15
$GPGSA,A,3,13,15,17,24,28,74,,,,,,,,,,,,,,,,,,,,,,,,,,,,,,,,,,,,,,,,,,,,,9.1,2.2,8.8*35
$GPZDA,181439.00,04,12,2018,00,00*6C
$GPGGA,181439,5004.0835,N,01954.4469,E,1,06,2.19,230.32,M,41.913,M,,*4F
$GPRMC,181439,A,5004.0835,N,01954.4469,E,0.6303,174.151,041218,,*2D
$GPGSA,A,3,13,15,17,24,28,74,,,,,,,,,,,,,,,,,,,,,,,,,,,,,,,,,,,,,,,,,,,,,10.1,2.2,9.9*0D
$GPGBS,181439,13.67,M,15.86,M,227.47,M*35
$GPZDA,181440.00,04,12,2018,00,00*62
$GPGGA,181440,5004.0839,N,01954.4468,E,1,06,1.50,229.55,M,41.913,M,,*4B
$GPRMC,181440,A,5004.0839,N,01954.4468,E,0.1567,13.606,041218,,*18
$GPGSA,A,3,13,15,17,24,28,74,,,,,,,,,,,,,,,,,,,,,,,,,,,,,,,,,,,,,,,,,,,,,5.2,1.5,5.0*3B
$GPZDA,181441.00,04,12,2018,00,00*63
$GPGGA,181441,5004.0842,N,01954.4471,E,1,06,1.50,229.30,M,41.913,M,,*4D
$GPRMC,181441,A,5004.0842,N,01954.4471,E,0.4735,25.335,041218,,*1D
$GPGSA,A,3,13,15,17,24,28,74,,,,,,,,,,,,,,,,,,,,,,,,,,,,,,,,,,,,,,,,,,,,,5.2,1.5,5.0*3B
$GPGBS,181441,13.67,M,15.86,M,115.23,M*3A
$GPZDA,181442.00,04,12,2018,00,00*60
$GPGGA,181442,5004.0848,N,01954.4461,E,1,06,1.50,231.50,M,41.913,M,,*4A
$GPRMC,181442,A,5004.0848,N,01954.4461,E,1.4235,327.354,041218,,*27
$GPGSA,A,3,13,15,17,24,28,74,,,,,,,,,,,,,,,,,,,,,,,,,,,,,,,,,,,,,,,,,,,,,5.2,1.5,5.0*3B
$GPGSV,2,1,08,12,18,232,15,13,47,168,29,15,60,234,29,17,46,099,22*72
$GPGSV,2,2,08,24,51,290,19,28,32,056,20,74,56,049,16,75,54,289,19*78
$GPZDA,181443.00,04,12,2018,00,00*61
$GPGGA,181443,5004.0851,N,01954.4460,E,1,06,1.50,231.56,M,41.913,M,,*44
$GPRMC,181443,A,5004.0851,N,01954.4460,E,1.4952,326.918,041218,,*26
$GPGSA,A,3,13,15,17,24,28,74,,,,,,,,,,,,,,,,,,,,,,,,,,,,,,,,,,,,,,,,,,,,,5.2,1.5,5.0*3B
$GPGBS,181443,13.67,M,15.86,M,115.23,M*38
$GPZDA,181444.00,04,12,2018,00,00*66
$GPGGA,181444,5004.0849,N,01954.4471,E,1,07,1.50,232.24,M,41.913,M,,*4D
$GPRMC,181444,A,5004.0849,N,01954.4471,E,0.6916,359.713,041218,,*26
$GPGSA,A,3,13,15,17,24,28,74,,,,,,,,,,,,,,,,,,,,,,,,,,,,,,,,,,,,,,,,,,,,,5.2,1.5,5.0*3B
$GPZDA,181445.00,04,12,2018,00,00*67
$GPGGA,181445,5004.0847,N,01954.4475,E,1,07,1.40,233.36,M,41.913,M,,*45
$GPRMC,181445,A,5004.0847,N,01954.4475,E,0.2588,343.297,041218,,*20
$GPGSA,A,3,13,15,17,24,28,74,,,,,,,,,,,,,,,,,,,,,,,,,,,,,,,,,,,,,,,,,,,,,5.2,1.4,5.0*3A
$GPGBS,181445,13.67,M,15.86,M,115.00,M*3F
$GPZDA,181446.00,04,12,2018,00,00*64
$GPGGA,181446,5004.0846,N,01954.4477,E,1,07,1.40,232.24,M,41.913,M,,*47
$GPRMC,181446,A,5004.0846,N,01954.4477,E,0.1610,6.059,041218,,*23
$GPGSA,A,3,13,15,17,24,28,74,,,,,,,,,,,,,,,,,,,,,,,,,,,,,,,,,,,,,,,,,,,,,5.2,1.4,5.0*3A
$GPZDA,181447.00,04,12,2018,00,00*65
$GPGGA,181447,5004.0845,N,01954.4476,E,1,07,1.40,229.99,M,41.913,M,,*48
$GPRMC,181447,A,5004.0845,N,01954.4476,E,0.2217,30.211,041218,,*1B
$GPGSA,A,3,13,15,17,24,28,74,,,,,,,,,,,,,,,,,,,,,,,,,,,,,,,,,,,,,,,,,,,,,5.2,1.4,5.0*3A
$GPGBS,181447,13.67,M,15.86,M,115.00,M*3D
$GPZDA,181448.00,04,12,2018,00,00*6A
$GPGGA,181448,5004.0842,N,01954.4482,E,1,07,1.40,231.43,M,41.913,M,,*45
$GPRMC,181448,A,5004.0842,N,01954.4482,E,0.4242,109.745,041218,,*21
$GPGSA,A,3,13,15,17,24,28,74,,,,,,,,,,,,,,,,,,,,,,,,,,,,,,,,,,,,,,,,,,,,,5.2,1.4,5.0*3A
$GPZDA,181449.00,04,12,2018,00,00*6B
$GPGGA,181449,5004.0840,N,01954.4489,E,1,07,1.40,233.59,M,41.913,M,,*44
$GPRMC,181449,A,5004.0840,N,01954.4489,E,0.9065,112.690,041218,,*20
$GPGSA,A,3,13,15,17,24,28,74,,,,,,,,,,,,,,,,,,,,,,,,,,,,,,,,,,,,,,,,,,,,,5.2,1.4,5.0*3A
$GPGBS,181449,13.67,M,15.86,M,115.00,M*33
$GPZDA,181450.00,04,12,2018,00,00*63
$GPGGA,181450,5004.0837,N,01954.4491,E,1,07,1.40,232.39,M,41.913,M,,*42
$GPRMC,181450,A,5004.0837,N,01954.4491,E,0.8996,111.349,041218,,*27
$GPGSA,A,3,13,15,17,24,28,74,,,,,,,,,,,,,,,,,,,,,,,,,,,,,,,,,,,,,,,,,,,,,5.2,1.4,5.0*3A
$GPZDA,181451.00,04,12,2018,00,00*62
$GPGGA,181451,5004.0835,N,01954.4488,E,1,06,1.40,231.97,M,41.913,M,,*4F
$GPRMC,181451,A,5004.0835,N,01954.4488,E,0.6504,136.497,041218,,*24
$GPGSA,A,3,13,15,17,24,28,74,,,,,,,,,,,,,,,,,,,,,,,,,,,,,,,,,,,,,,,,,,,,,5.2,1.4,5.0*3A
$GPGBS,181451,13.67,M,15.86,M,115.00,M*3A
$GPZDA,181452.00,04,12,2018,00,00*61
$GPGGA,181452,5004.0832,N,01954.4493,E,1,07,1.50,230.90,M,41.913,M,,*47
$GPRMC,181452,A,5004.0832,N,01954.4493,E,0.8763,113.881,041218,,*2B
$GPGSA,A,3,13,15,17,24,28,74,,,,,,,,,,,,,,,,,,,,,,,,,,,,,,,,,,,,,,,,,,,,,5.2,1.5,5.0*3B
$GPGSV,2,1,08,10,13,322,18,13,47,168,19,15,60,234,22,17,46,098,25*78
$GPGSV,2,2,08,24,51,290,20,28,32,056,23,74,56,049,25,75,54,289,17*7F
$GPZDA,181453.00,04,12,2018,00,00*60
$GPGGA,181453,5004.0826,N,01954.4492,E,1,07,1.40,227.82,M,41.913,M,,*46
$GPRMC,181453,A,5004.0826,N,01954.4492,E,1.1891,143.607,041218,,*21
$GPGSA,A,3,13,15,17,24,28,74,75,,,,,,,,,,,,,,,,,,,,,,,,,,,,,,,,,,,,,,,,,,,,5.2,1.4,5.0*38
$GPGBS,181453,13.67,M,15.86,M,115.00,M*38
$GPZDA,181454.00,04,12,2018,00,00*67
$GPGGA,181454,5004.0827,N,01954.4479,E,1,06,1.40,225.55,M,41.914,M,,*4B
$GPRMC,181454,A,5004.0827,N,01954.4479,E,0.5591,233.496,041218,,*24
$GPGSA,A,3,13,15,17,24,28,74,75,,,,,,,,,,,,,,,,,,,,,,,,,,,,,,,,,,,,,,,,,,,,5.2,1.4,5.0*38
$GPZDA,181455.00,04,12,2018,00,00*66
$GPGGA,181455,5004.0824,N,01954.4480,E,1,07,1.50,224.80,M,41.914,M,,*46
$GPRMC,181455,A,5004.0824,N,01954.4480,E,0.4156,227.551,041218,,*21
$GPGSA,A,3,13,15,17,24,28,74,75,,,,,,,,,,,,,,,,,,,,,,,,,,,,,,,,,,,,,,,,,,,,5.2,1.5,5.0*39
$GPGBS,181455,13.67,M,15.86,M,115.00,M*3E
$GPZDA,181456.00,04,12,2018,00,00*65
$GPGGA,181456,5004.0821,N,01954.4483,E,1,07,1.40,224.64,M,41.914,M,,*48
$GPRMC,181456,A,5004.0821,N,01954.4483,E,0.2886,229.288,041218,,*2B
$GPGSA,A,3,13,15,17,24,28,74,75,,,,,,,,,,,,,,,,,,,,,,,,,,,,,,,,,,,,,,,,,,,,5.2,1.4,5.0*38
$GPZDA,181457.00,04,12,2018,00,00*64
$GPGGA,181457,5004.0819,N,01954.4486,E,1,07,1.40,225.02,M,41.914,M,,*46
$GPRMC,181457,A,5004.0819,N,01954.4486,E,0.2204,283.903,041218,,*2C
$GPGSA,A,3,13,15,17,24,28,74,75,,,,,,,,,,,,,,,,,,,,,,,,,,,,,,,,,,,,,,,,,,,,5.2,1.4,5.0*38
$GPGBS,181457,13.67,M,15.86,M,115.00,M*3C
$GPZDA,181458.00,04,12,2018,00,00*6B
$GPGGA,181458,5004.0817,N,01954.4488,E,1,07,1.40,224.18,M,41.914,M,,*43
$GPRMC,181458,A,5004.0817,N,01954.4488,E,0.1102,39.421,041218,,*1B
$GPGSA,A,3,13,15,17,24,28,74,75,,,,,,,,,,,,,,,,,,,,,,,,,,,,,,,,,,,,,,,,,,,,5.2,1.4,5.0*38
$GPZDA,181459.00,04,12,2018,00,00*6A
$GPGGA,181459,5004.0811,N,01954.4497,E,1,07,1.40,223.92,M,41.914,M,,*4F
$GPRMC,181459,A,5004.0811,N,01954.4497,E,1.1237,121.881,041218,,*28
$GPGSA,A,3,13,15,17,24,28,74,75,,,,,,,,,,,,,,,,,,,,,,,,,,,,,,,,,,,,,,,,,,,,5.2,1.4,5.0*38
$GPGBS,181459,13.67,M,15.86,M,114.77,M*33
$GPZDA,181500.00,04,12,2018,00,00*67
$GPGGA,181500,5004.0807,N,01954.4508,E,1,07,1.40,223.40,M,41.914,M,,*4D
$GPRMC,181500,A,5004.0807,N,01954.4508,E,1.6510,113.656,041218,,*25
$GPGSA,A,3,13,15,17,24,28,74,75,,,,,,,,,,,,,,,,,,,,,,,,,,,,,,,,,,,,,,,,,,,,5.2,1.4,5.0*38
$GPZDA,181501.00,04,12,2018,00,00*66
$GPGGA,181501,5004.0806,N,01954.4506,E,1,07,1.40,221.27,M,41.914,M,,*40
$GPRMC,181501,A,5004.0806,N,01954.4506,E,0.7635,98.036,041218,,*1D
$GPGSA,A,3,13,15,17,24,28,74,75,,,,,,,,,,,,,,,,,,,,,,,,,,,,,,,,,,,,,,,,,,,,5.2,1.4,5.0*38
$GPGBS,181501,13.67,M,15.86,M,114.77,M*3F
$GPZDA,181502.00,04,12,2018,00,00*65
$GPGGA,181502,5004.0811,N,01954.4509,E,1,07,1.40,219.00,M,41.914,M,,*44
$GPRMC,181502,A,5004.0811,N,01954.4509,E,1.6589,58.594,041218,,*12
$GPGSA,A,3,13,15,17,24,28,74,75,,,,,,,,,,,,,,,,,,,,,,,,,,,,,,,,,,,,,,,,,,,,5.2,1.4,5.0*38
$GPGSV,3,1,09,10,13,322,15,12,18,232,17,13,47,168,29,15,60,234,28*71
$GPGSV,3,2,09,17,46,098,20,24,51,290,29,28,32,056,19,74,56,049,21*7A
$GPGSV,3,3,09,75,54,289,29*4B
$GPZDA,181503.00,04,12,2018,00,00*64
$GPGGA,181503,5004.0814,N,01954.4507,E,1,07,1.40,217.95,M,41.914,M,,*4C
$GPRMC,181503,A,5004.0814,N,01954.4507,E,1.3300,42.350,041218,,*1F
$GPGSA,A,3,13,15,17,24,28,74,75,,,,,,,,,,,,,,,,,,,,,,,,,,,,,,,,,,,,,,,,,,,,5.2,1.4,5.0*38
$GPGBS,181503,13.67,M,15.86,M,114.77,M*3D
$GPZDA,181504.00,04,12,2018,00,00*63
$GPGGA,181504,5004.0815,N,01954.4508,E,1,07,1.40,217.03,M,41.914,M,,*4A
$GPRMC,181504,A,5004.0815,N,01954.4508,E,1.3156,45.860,041218,,*18
$GPGSA,A,3,13,15,17,24,28,74,75,,,,,,,,,,,,,,,,,,,,,,,,,,,,,,,,,,,,,,,,,,,,5.2,1.4,5.0*38
$GPZDA,181505.00,04,12,2018,00,00*62
$GPGGA,181505,5004.0816,N,01954.4508,E,1,07,1.40,217.09,M,41.914,M,,*42
$GPRMC,181505,A,5004.0816,N,01954.4508,E,1.2164,35.804,041218,,*1F
$GPGSA,A,3,13,15,17,24,28,74,75,,,,,,,,,,,,,,,,,,,,,,,,,,,,,,,,,,,,,,,,,,,,5.2,1.4,5.0*38
$GPGBS,181505,13.67,M,15.86,M,114.77,M*3B
$GPZDA,181506.00,04,12,2018,00,00*61
$GPGGA,181506,5004.0819,N,01954.4505,E,1,07,1.40,216.20,M,41.914,M,,*49
$GPRMC,181506,A,5004.0819,N,01954.4505,E,1.3407,11.596,041218,,*1F
$GPGSA,A,3,13,15,17,24,28,74,75,,,,,,,,,,,,,,,,,,,,,,,,,,,,,,,,,,,,,,,,,,,,5.2,1.4,5.0*38
$GPZDA,181507.00,04,12,2018,00,00*60
$GPGGA,181507,5004.0821,N,01954.4504,E,1,07,1.40,215.22,M,41.914,M,,*43
$GPRMC,181507,A,5004.0821,N,01954.4504,E,1.2928,19.615,041218,,*15
$GPGSA,A,3,13,15,17,24,28,74,75,,,,,,,,,,,,,,,,,,,,,,,,,,,,,,,,,,,,,,,,,,,,5.2,1.4,5.0*38
$GPGBS,181507,13.67,M,15.86,M,114.77,M*39
$GPZDA,181508.00,04,12,2018,00,00*6F
$GPGGA,181508,5004.0823,N,01954.4501,E,1,07,1.40,213.71,M,41.914,M,,*4B
$GPRMC,181508,A,5004.0823,N,01954.4501,E,1.0019,13.462,041218,,*1C
$GPGSA,A,3,13,15,17,24,28,74,75,,,,,,,,,,,,,,,,,,,,,,,,,,,,,,,,,,,,,,,,,,,,5.2,1.4,5.0*38
$GPZDA,181509.00,04,12,2018,00,00*6E
$GPGGA,181509,5004.0825,N,01954.4494,E,1,07,1.40,213.24,M,41.913,M,,*46
$GPRMC,181509,A,5004.0825,N,01954.4494,E,1.0766,332.776,041218,,*2F
$GPGSA,A,3,13,15,17,24,28,74,75,,,,,,,,,,,,,,,,,,,,,,,,,,,,,,,,,,,,,,,,,,,,5.2,1.4,5.0*38
$GPGBS,181509,13.67,M,15.86,M,114.77,M*37
$GPZDA,181510.00,04,12,2018,00,00*66
$GPGGA,181510,5004.0825,N,01954.4489,E,1,07,1.40,212.31,M,41.914,M,,*40
$GPRMC,181510,A,5004.0825,N,01954.4489,E,0.6850,325.380,041218,,*2D
$GPGSA,A,3,13,15,17,24,28,74,75,,,,,,,,,,,,,,,,,,,,,,,,,,,,,,,,,,,,,,,,,,,,5.2,1.4,5.0*38
$GPZDA,181511.00,04,12,2018,00,00*67
$GPGGA,181511,5004.0824,N,01954.4490,E,1,07,1.40,211.93,M,41.914,M,,*43
$GPRMC,181511,A,5004.0824,N,01954.4490,E,0.2585,46.499,041218,,*1D
$GPGSA,A,3,13,15,17,24,28,74,75,,,,,,,,,,,,,,,,,,,,,,,,,,,,,,,,,,,,,,,,,,,,5.2,1.4,5.0*38
$GPGBS,181511,13.67,M,15.86,M,114.77,M*3E
$GPZDA,181512.00,04,12,2018,00,00*64
$GPGGA,181512,5004.0826,N,01954.4488,E,1,07,1.40,212.52,M,41.914,M,,*45
$GPRMC,181512,A,5004.0826,N,01954.4488,E,0.5089,10.095,041218,,*10
$GPGSA,A,3,13,15,17,24,28,74,75,,,,,,,,,,,,,,,,,,,,,,,,,,,,,,,,,,,,,,,,,,,,5.2,1.4,5.0*38
$GPGSV,3,1,09,10,13,322,20,12,18,232,22,13,47,168,28,15,60,234,22*7A
$GPGSV,3,2,09,17,46,098,22,24,51,290,25,28,32,056,21,74,55,049,22*7F
$GPGSV,3,3,09,75,54,289,24*46
$GPZDA,181513.00,04,12,2018,00,00*65
$GPGGA,181513,5004.0825,N,01954.4489,E,1,07,1.40,212.65,M,41.914,M,,*42
$GPRMC,181513,A,5004.0825,N,01954.4489,E,0.6093,50.185,041218,,*1F
$GPGSA,A,3,13,15,17,24,28,74,75,,,,,,,,,,,,,,,,,,,,,,,,,,,,,,,,,,,,,,,,,,,,5.2,1.4,5.0*38
$GPGBS,181513,13.67,M,15.86,M,114.54,M*3D
$GPZDA,181514.00,04,12,2018,00,00*62
$GPGGA,181514,5004.0821,N,01954.4484,E,1,07,1.40,213.11,M,41.914,M,,*4E
$GPRMC,181514,A,5004.0821,N,01954.4484,E,0.3532,171.279,041218,,*28
$GPGSA,A,3,13,15,17,24,28,74,75,,,,,,,,,,,,,,,,,,,,,,,,,,,,,,,,,,,,,,,,,,,,5.2,1.4,5.0*38
$GPZDA,181515.00,04,12,2018,00,00*63
$GPGGA,181515,5004.0819,N,01954.4480,E,1,06,1.40,213.42,M,41.914,M,,*47
$GPRMC,181515,A,5004.0819,N,01954.4480,E,0.2077,217.911,041218,,*25
$GPGSA,A,3,13,15,17,24,28,74,75,,,,,,,,,,,,,,,,,,,,,,,,,,,,,,,,,,,,,,,,,,,,5.2,1.4,5.0*38
$GPGBS,181515,13.67,M,15.86,M,114.54,M*3B
$GPZDA,181516.00,04,12,2018,00,00*60
$GPGGA,181516,5004.0820,N,01954.4478,E,1,06,1.50,214.22,M,41.914,M,,*49
$GPRMC,181516,A,5004.0820,N,01954.4478,E,0.4443,332.826,041218,,*2D
$GPGSA,A,3,13,15,17,24,28,74,75,,,,,,,,,,,,,,,,,,,,,,,,,,,,,,,,,,,,,,,,,,,,5.2,1.5,5.0*39
$GPZDA,181517.00,04,12,2018,00,00*61
$GPGGA,181517,5004.0818,N,01954.4478,E,1,06,1.50,214.54,M,41.914,M,,*42
$GPRMC,181517,A,5004.0818,N,01954.4478,E,0.3033,42.729,041218,,*17
$GPGSA,A,3,13,15,17,24,28,74,75,,,,,,,,,,,,,,,,,,,,,,,,,,,,,,,,,,,,,,,,,,,,5.2,1.5,5.0*39
$GPGBS,181517,13.67,M,15.86,M,114.77,M*38
$GPZDA,181518.00,04,12,2018,00,00*6E
$GPGGA,181518,5004.0817,N,01954.4477,E,1,06,1.50,215.36,M,41.914,M,,*48
$GPRMC,181518,A,5004.0817,N,01954.4477,E,0.3451,41.947,041218,,*1D
$GPGSA,A,3,13,15,17,24,28,74,75,,,,,,,,,,,,,,,,,,,,,,,,,,,,,,,,,,,,,,,,,,,,5.2,1.5,5.0*39
$GPZDA,181519.00,04,12,2018,00,00*6F
$GPGGA,181519,5004.0813,N,01954.4473,E,1,06,1.50,216.37,M,41.914,M,,*4B
$GPRMC,181519,A,5004.0813,N,01954.4473,E,0.2692,185.579,041218,,*28
$GPGSA,A,3,13,15,17,24,28,74,75,,,,,,,,,,,,,,,,,,,,,,,,,,,,,,,,,,,,,,,,,,,,5.2,1.5,5.0*39
$GPGBS,181519,13.67,M,15.86,M,114.54,M*37
$GPZDA,181520.00,04,12,2018,00,00*65
$GPGGA,181520,5004.0812,N,01954.4474,E,1,06,1.50,216.31,M,41.914,M,,*41
$GPRMC,181520,A,5004.0812,N,01954.4474,E,0.4683,105.918,041218,,*21
$GPGSA,A,3,13,15,17,24,28,74,75,,,,,,,,,,,,,,,,,,,,,,,,,,,,,,,,,,,,,,,,,,,,5.2,1.5,5.0*39
$GPZDA,181521.00,04,12,2018,00,00*64
$GPGGA,181521,5004.0816,N,01954.4473,E,1,06,1.50,215.94,M,41.914,M,,*4F
$GPRMC,181521,A,5004.0816,N,01954.4473,E,0.8626,39.827,041218,,*13
$GPGSA,A,3,13,15,17,24,28,74,75,,,,,,,,,,,,,,,,,,,,,,,,,,,,,,,,,,,,,,,,,,,,5.2,1.5,5.0*39
$GPGBS,181521,13.67,M,15.86,M,114.54,M*3C
$GPZDA,181522.00,04,12,2018,00,00*67
$GPGGA,181522,5004.0821,N,01954.4479,E,1,06,1.50,215.71,M,41.914,M,,*49
$GPRMC,181522,A,5004.0821,N,01954.4479,E,1.7530,47.027,041218,,*15
$GPGSA,A,3,13,15,17,24,28,74,75,,,,,,,,,,,,,,,,,,,,,,,,,,,,,,,,,,,,,,,,,,,,5.2,1.5,5.0*39
$GPGSV,2,1,08,10,13,321,13,12,18,232,13,13,47,168,22,15,59,234,27*7E
$GPGSV,2,2,08,17,46,098,21,24,51,290,20,28,32,056,14,74,55,049,17*79
$GPZDA,181523.00,04,12,2018,00,00*66
$GPGGA,181523,5004.0823,N,01954.4482,E,1,05,1.50,214.77,M,41.914,M,,*4A
$GPRMC,181523,A,5004.0823,N,01954.4482,E,1.6073,49.632,041218,,*1D
$GPGSA,A,3,13,15,17,24,28,74,,,,,,,,,,,,,,,,,,,,,,,,,,,,,,,,,,,,,,,,,,,,,5.2,1.5,5.0*3B
$GPGBS,181523,13.67,M,15.86,M,114.54,M*3E
$GPZDA,181524.00,04,12,2018,00,00*61
$GPGGA,181524,5004.0824,N,01954.4485,E,1,05,1.71,213.83,M,41.914,M,,*42
$GPRMC,181524,A,5004.0824,N,01954.4485,E,1.3517,54.247,041218,,*12
$GPGSA,A,3,13,15,17,24,28,74,,,,,,,,,,,,,,,,,,,,,,,,,,,,,,,,,,,,,,,,,,,,,10.6,1.7,10.4*39
$GPZDA,181525.00,04,12,2018,00,00*60
$GPGGA,181525,5004.0834,N,01954.4493,E,1,05,1.71,213.06,M,41.913,M,,*4F
$GPRMC,181525,A,5004.0834,N,01954.4493,E,2.3013,44.894,041218,,*12
$GPGSA,A,3,13,15,17,24,28,74,,,,,,,,,,,,,,,,,,,,,,,,,,,,,,,,,,,,,,,,,,,,,10.6,1.7,10.4*39
$GPGBS,181525,13.67,M,15.86,M,239.66,M*35
$GPZDA,181526.00,04,12,2018,00,00*63
$GPGGA,181526,5004.0835,N,01954.4494,E,1,05,1.71,212.43,M,41.913,M,,*4A
$GPRMC,181526,A,5004.0835,N,01954.4494,E,1.7969,44.564,041218,,*16
$GPGSA,A,3,13,15,17,24,28,74,,,,,,,,,,,,,,,,,,,,,,,,,,,,,,,,,,,,,,,,,,,,,10.6,1.7,10.4*39
$GPZDA,181527.00,04,12,2018,00,00*62
$GPGGA,181527,5004.0836,N,01954.4494,E,1,05,1.71,211.76,M,41.913,M,,*4D
$GPRMC,181527,A,5004.0836,N,01954.4494,E,1.3491,44.603,041218,,*18
$GPGSA,A,3,13,15,17,24,28,74,,,,,,,,,,,,,,,,,,,,,,,,,,,,,,,,,,,,,,,,,,,,,10.6,1.7,10.4*39
$GPGBS,181527,13.67,M,15.86,M,240.12,M*3A
$GPZDA,181528.00,04,12,2018,00,00*6D
$GPGGA,181528,5004.0834,N,01954.4495,E,1,04,1.71,211.31,M,41.913,M,,*43
$GPRMC,181528,A,5004.0834,N,01954.4495,E,0.9618,54.185,041218,,*14
$GPGSA,A,3,13,15,17,24,28,74,,,,,,,,,,,,,,,,,,,,,,,,,,,,,,,,,,,,,,,,,,,,,10.6,1.7,10.4*39
$GPZDA,181529.00,04,12,2018,00,00*6C
$GPGGA,181529,5004.0838,N,01954.4488,E,1,04,2.25,210.91,M,41.913,M,,*4B
$GPRMC,181529,A,5004.0838,N,01954.4488,E,0.7378,1.618,041218,,*2B
$GPGSA,A,3,13,15,17,24,28,74,,,,,,,,,,,,,,,,,,,,,,,,,,,,,,,,,,,,,,,,,,,,,13.4,2.2,13.2*3B
$GPGBS,181529,13.67,M,15.86,M,304.06,M*30
$GPZDA,181530.00,04,12,2018,00,00*64
$GPGGA,181530,5004.0838,N,01954.4485,E,1,04,2.25,210.07,M,41.913,M,,*41
$GPRMC,181530,A,5004.0838,N,01954.4485,E,0.6014,348.794,041218,,*2D
$GPGSA,A,3,13,15,17,24,28,74,,,,,,,,,,,,,,,,,,,,,,,,,,,,,,,,,,,,,,,,,,,,,13.4,2.2,13.2*3B
$GPZDA,181531.00,04,12,2018,00,00*65
$GPGGA,181531,5004.0836,N,01954.4486,E,1,04,2.25,209.77,M,41.913,M,,*42
$GPRMC,181531,A,5004.0836,N,01954.4486,E,0.3102,13.877,041218,,*1D
$GPGSA,A,3,13,15,17,24,28,74,,,,,,,,,,,,,,,,,,,,,,,,,,,,,,,,,,,,,,,,,,,,,13.4,2.2,13.2*3B
$GPGBS,181531,13.67,M,15.86,M,304.06,M*39
$GPZDA,181532.00,04,12,2018,00,00*66
$GPGGA,181532,5004.0835,N,01954.4484,E,1,04,2.25,209.20,M,41.913,M,,*42
$GPRMC,181532,A,5004.0835,N,01954.4484,E,0.2038,1.332,041218,,*2F
$GPGSA,A,3,13,15,17,24,28,74,,,,,,,,,,,,,,,,,,,,,,,,,,,,,,,,,,,,,,,,,,,,,13.4,2.2,13.2*3B
$GPGSV,2,1,07,10,13,321,14,12,18,232,09,13,47,168,26,15,59,234,24*7A
$GPGSV,2,2,07,17,46,098,26,24,51,290,26,28,32,056,20*48
$GPZDA,181533.00,04,12,2018,00,00*67
$GPGGA,181533,5004.0835,N,01954.4482,E,1,04,2.25,208.75,M,41.913,M,,*44
$GPRMC,181533,A,5004.0835,N,01954.4482,E,0.2246,347.115,041218,,*25
$GPGSA,A,3,13,15,17,24,,,,,,,,,,,,,,,,,,,,,,,,,,,,,,,,,,,,,,,,,,,,,,,13.4,2.2,13.2*32
$GPGBS,181533,13.67,M,15.86,M,304.06,M*3B
$GPZDA,181534.00,04,12,2018,00,00*60
$GPGGA,181534,5004.0831,N,01954.4479,E,1,05,2.25,210.13,M,41.913,M,,*4B
$GPRMC,181534,A,5004.0831,N,01954.4479,E,0.2375,249.486,041218,,*23
$GPGSA,A,3,13,15,17,24,,,,,,,,,,,,,,,,,,,,,,,,,,,,,,,,,,,,,,,,,,,,,,,13.4,2.2,13.2*32
$GPZDA,181535.00,04,12,2018,00,00*61
$GPGGA,181535,5004.0826,N,01954.4476,E,1,05,2.10,210.71,M,41.914,M,,*46
$GPRMC,181535,A,5004.0826,N,01954.4476,E,0.4498,205.303,041218,,*2B
$GPGSA,A,3,13,15,17,24,,,,,,,,,,,,,,,,,,,,,,,,,,,,,,,,,,,,,,,,,,,,,,,8.7,2.1,8.4*34
$GPGBS,181535,13.67,M,15.86,M,193.20,M*35
$GPZDA,181536.00,04,12,2018,00,00*62
$GPGGA,181536,5004.0830,N,01954.4478,E,1,05,2.10,212.26,M,41.913,M,,*4B
$GPRMC,181536,A,5004.0830,N,01954.4478,E,0.4329,4.344,041218,,*2C
$GPGSA,A,3,13,15,17,24,,,,,,,,,,,,,,,,,,,,,,,,,,,,,,,,,,,,,,,,,,,,,,,8.7,2.1,8.4*34
$GPZDA,181537.00,04,12,2018,00,00*63
$GPGGA,181537,5004.0828,N,01954.4475,E,1,05,2.10,212.58,M,41.914,M,,*40
$GPRMC,181537,A,5004.0828,N,01954.4475,E,0.3170,334.505,041218,,*23
$GPGSA,A,3,13,15,17,24,,,,,,,,,,,,,,,,,,,,,,,,,,,,,,,,,,,,,,,,,,,,,,,8.6,2.1,8.4*35
$GPGBS,181537,13.67,M,15.86,M,192.74,M*37
$GPZDA,181538.00,04,12,2018,00,00*6C
$GPGGA,181538,5004.0825,N,01954.4476,E,1,04,2.10,212.05,M,41.914,M,,*48
$GPRMC,181538,A,5004.0825,N,01954.4476,E,0.1790,113.239,041218,,*27
$GPGSA,A,3,13,15,17,24,,,,,,,,,,,,,,,,,,,,,,,,,,,,,,,,,,,,,,,,,,,,,,,8.6,2.1,8.4*35
$GPZDA,181539.00,04,12,2018,00,00*6D
$GPGGA,181539,5004.0827,N,01954.4473,E,1,04,2.10,212.14,M,41.914,M,,*4E
$GPRMC,181539,A,5004.0827,N,01954.4473,E,0.3400,346.388,041218,,*20
$GPGSA,A,3,13,15,17,24,,,,,,,,,,,,,,,,,,,,,,,,,,,,,,,,,,,,,,,,,,,,,,,9.4,2.1,9.2*31
$GPGBS,181539,13.67,M,15.86,M,210.45,M*32
$GPZDA,181540.00,04,12,2018,00,00*63
$GPGGA,181540,5004.0826,N,01954.4472,E,1,04,2.10,212.08,M,41.914,M,,*4D
$GPRMC,181540,A,5004.0826,N,01954.4472,E,0.3156,335.710,041218,,*29
$GPGSA,A,3,13,15,17,24,,,,,,,,,,,,,,,,,,,,,,,,,,,,,,,,,,,,,,,,,,,,,,,9.4,2.1,9.1*32
$GPZDA,181541.00,04,12,2018,00,00*62
$GPGGA,181541,5004.0824,N,01954.4475,E,1,04,2.10,211.89,M,41.914,M,,*43
$GPRMC,181541,A,5004.0824,N,01954.4475,E,0.2401,61.428,041218,,*11
$GPGSA,A,3,13,15,17,24,,,,,,,,,,,,,,,,,,,,,,,,,,,,,,,,,,,,,,,,,,,,,,,9.4,2.1,9.1*32
$GPGBS,181541,13.67,M,15.86,M,209.99,M*34
$GPZDA,181542.00,04,12,2018,00,00*61
$GPGGA,181542,5004.0823,N,01954.4477,E,1,05,2.10,211.68,M,41.914,M,,*4B
$GPRMC,181542,A,5004.0823,N,01954.4477,E,0.3698,55.659,041218,,*17
$GPGSA,A,3,13,15,17,24,,,,,,,,,,,,,,,,,,,,,,,,,,,,,,,,,,,,,,,,,,,,,,,9.4,2.1,9.1*32
$GPGSV,2,1,06,12,18,232,21,13,47,168,26,15,59,234,20,17,46,098,17*70
$GPGSV,2,2,06,24,51,290,21,28,32,056,18*74
$GPZDA,181543.00,04,12,2018,00,00*60
$GPGGA,181543,5004.0826,N,01954.4491,E,1,05,2.09,211.95,M,41.914,M,,*4D
$GPRMC,181543,A,5004.0826,N,01954.4491,E,1.2798,72.205,041218,,*12
$GPGSA,A,3,13,15,17,24,28,,,,,,,,,,,,,,,,,,,,,,,,,,,,,,,,,,,,,,,,,,,,,,8.6,2.1,8.3*38
$GPGBS,181543,13.67,M,15.86,M,191.82,M*3E
$GPZDA,181544.00,04,12,2018,00,00*67
$GPGGA,181544,5004.0831,N,01954.4502,E,1,05,2.09,211.73,M,41.913,M,,*48
$GPRMC,181544,A,5004.0831,N,01954.4502,E,1.9054,59.880,041218,,*1A
$GPGSA,A,3,13,15,17,24,28,,,,,,,,,,,,,,,,,,,,,,,,,,,,,,,,,,,,,,,,,,,,,,8.6,2.1,8.3*38
$GPZDA,181545.00,04,12,2018,00,00*66
$GPGGA,181545,5004.0834,N,01954.4489,E,1,05,2.09,211.55,M,41.913,M,,*4A
$GPRMC,181545,A,5004.0834,N,01954.4489,E,1.2175,14.559,041218,,*15
$GPGSA,A,3,13,15,17,24,28,,,,,,,,,,,,,,,,,,,,,,,,,,,,,,,,,,,,,,,,,,,,,,8.6,2.1,8.3*38
$GPGBS,181545,13.67,M,15.86,M,191.59,M*3E
$GPZDA,181546.00,04,12,2018,00,00*65
$GPGGA,181546,5004.0831,N,01954.4482,E,1,05,2.09,210.96,M,41.913,M,,*49
$GPRMC,181546,A,5004.0831,N,01954.4482,E,0.8045,347.424,041218,,*2F
$GPGSA,A,3,13,15,17,24,28,,,,,,,,,,,,,,,,,,,,,,,,,,,,,,,,,,,,,,,,,,,,,,8.6,2.1,8.3*38
$GPZDA,181547.00,04,12,2018,00,00*64
$GPGGA,181547,5004.0836,N,01954.4478,E,1,05,2.09,210.36,M,41.913,M,,*40
$GPRMC,181547,A,5004.0836,N,01954.4478,E,1.2364,336.765,041218,,*27
$GPGSA,A,3,13,15,17,24,28,,,,,,,,,,,,,,,,,,,,,,,,,,,,,,,,,,,,,,,,,,,,,,8.6,2.1,8.3*38
$GPGBS,181547,13.67,M,15.86,M,191.13,M*32
$GPZDA,181548.00,04,12,2018,00,00*6B
$GPGGA,181548,5004.0838,N,01954.4480,E,1,05,2.09,209.98,M,41.913,M,,*4A
$GPRMC,181548,A,5004.0838,N,01954.4480,E,1.0625,346.749,041218,,*2A
$GPGSA,A,3,13,15,17,24,28,,,,,,,,,,,,,,,,,,,,,,,,,,,,,,,,,,,,,,,,,,,,,,8.6,2.1,8.3*38
$GPZDA,181549.00,04,12,2018,00,00*6A
$GPGGA,181549,5004.0837,N,01954.4487,E,1,05,2.09,209.62,M,41.913,M,,*46
$GPRMC,181549,A,5004.0837,N,01954.4487,E,0.8903,13.534,041218,,*1A
$GPGSA,A,3,13,15,17,24,28,,,,,,,,,,,,,,,,,,,,,,,,,,,,,,,,,,,,,,,,,,,,,,8.6,2.1,8.3*38
$GPGBS,181549,13.67,M,15.86,M,190.90,M*36
$GPZDA,181550.00,04,12,2018,00,00*62
$GPGGA,181550,5004.0838,N,01954.4493,E,1,05,2.09,209.42,M,41.913,M,,*46
$GPRMC,181550,A,5004.0838,N,01954.4493,E,0.9558,30.430,041218,,*1F
$GPGSA,A,3,13,15,17,24,28,,,,,,,,,,,,,,,,,,,,,,,,,,,,,,,,,,,,,,,,,,,,,,8.6,2.1,8.3*38
$GPZDA,181551.00,04,12,2018,00,00*63
$GPGGA,181551,5004.0836,N,01954.4494,E,1,05,2.09,208.78,M,41.913,M,,*46
$GPRMC,181551,A,5004.0836,N,01954.4494,E,0.6579,19.711,041218,,*10
$GPGSA,A,3,13,15,17,24,28,,,,,,,,,,,,,,,,,,,,,,,,,,,,,,,,,,,,,,,,,,,,,,8.5,2.1,8.3*3B
$GPGBS,181551,13.67,M,15.86,M,190.44,M*36
$GPZDA,181552.00,04,12,2018,00,00*60
$GPGGA,181552,5004.0838,N,01954.4499,E,1,05,2.08,208.61,M,41.913,M,,*4F
$GPRMC,181552,A,5004.0838,N,01954.4499,E,0.7978,26.259,041218,,*19
$GPGSA,A,3,13,15,17,24,28,,,,,,,,,,,,,,,,,,,,,,,,,,,,,,,,,,,,,,,,,,,,,,8.5,2.1,8.3*3B
$GPGSV,2,1,07,10,13,321,19,12,18,232,18,13,46,168,31,15,59,234,25*71
$GPGSV,2,2,07,17,46,098,19,24,51,290,25,28,32,056,22*45
$GPZDA,181553.00,04,12,2018,00,00*61
$GPGGA,181553,5004.0834,N,01954.4499,E,1,05,2.08,207.70,M,41.913,M,,*4D
$GPRMC,181553,A,5004.0834,N,01954.4499,E,0.2468,54.424,041218,,*14
$GPGSA,A,3,13,15,17,24,28,,,,,,,,,,,,,,,,,,,,,,,,,,,,,,,,,,,,,,,,,,,,,,8.5,2.1,8.3*3B
$GPGBS,181553,13.67,M,15.86,M,190.21,M*37
$GPZDA,181554.00,04,12,2018,00,00*66
$GPGGA,181554,5004.0836,N,01954.4504,E,1,05,2.08,206.80,M,41.913,M,,*43
$GPRMC,181554,A,5004.0836,N,01954.4504,E,0.7262,41.307,041218,,*1F
$GPGSA,A,3,13,15,17,24,28,,,,,,,,,,,,,,,,,,,,,,,,,,,,,,,,,,,,,,,,,,,,,,8.5,2.1,8.3*3B
$GPZDA,181555.00,04,12,2018,00,00*67
$GPGGA,181555,5004.0844,N,01954.4528,E,1,05,2.08,206.18,M,41.913,M,,*48
$GPRMC,181555,A,5004.0844,N,01954.4528,E,2.3812,55.605,041218,,*1C
$GPGSA,A,3,13,15,17,24,28,,,,,,,,,,,,,,,,,,,,,,,,,,,,,,,,,,,,,,,,,,,,,,8.5,2.1,8.2*3A
$GPGBS,181555,13.67,M,15.86,M,189.75,M*38
$GPZDA,181556.00,04,12,2018,00,00*64
$GPGGA,181556,5004.0839,N,01954.4524,E,1,05,2.08,205.52,M,41.913,M,,*40
$GPRMC,181556,A,5004.0839,N,01954.4524,E,1.0894,60.985,041218,,*16
$GPGSA,A,3,13,15,17,24,28,,,,,,,,,,,,,,,,,,,,,,,,,,,,,,,,,,,,,,,,,,,,,,8.5,2.1,8.2*3A
$GPZDA,181557.00,04,12,2018,00,00*65
$GPGGA,181557,5004.0837,N,01954.4520,E,1,05,2.08,205.54,M,41.913,M,,*4D
$GPRMC,181557,A,5004.0837,N,01954.4520,E,0.2757,67.971,041218,,*12
$GPGSA,A,3,13,15,17,24,28,,,,,,,,,,,,,,,,,,,,,,,,,,,,,,,,,,,,,,,,,,,,,,8.5,2.1,8.2*3A
$GPGBS,181557,13.67,M,15.86,M,189.52,M*3F
$GPZDA,181558.00,04,12,2018,00,00*6A
$GPGGA,181558,5004.0839,N,01954.4519,E,1,05,2.08,204.99,M,41.913,M,,*46
$GPRMC,181558,A,5004.0839,N,01954.4519,E,0.1505,8.795,041218,,*22
$GPGSA,A,3,13,15,17,24,28,,,,,,,,,,,,,,,,,,,,,,,,,,,,,,,,,,,,,,,,,,,,,,8.5,2.1,8.2*3A
$GPZDA,181559.00,04,12,2018,00,00*6B
$GPGGA,181559,5004.0846,N,01954.4521,E,1,05,2.08,203.89,M,41.913,M,,*42
$GPRMC,181559,A,5004.0846,N,01954.4521,E,0.8297,3.378,041218,,*29
$GPGSA,A,3,13,15,17,24,28,,,,,,,,,,,,,,,,,,,,,,,,,,,,,,,,,,,,,,,,,,,,,,8.5,2.1,8.2*3A
$GPGBS,181559,13.67,M,15.86,M,189.06,M*30
$GPZDA,181600.00,04,12,2018,00,00*64
$GPGGA,181600,5004.0855,N,01954.4538,E,1,05,2.08,202.63,M,41.913,M,,*42
$GPRMC,181600,A,5004.0855,N,01954.4538,E,2.0744,42.134,041218,,*12
$GPGSA,A,3,13,15,17,24,28,,,,,,,,,,,,,,,,,,,,,,,,,,,,,,,,,,,,,,,,,,,,,,8.5,2.1,8.2*3A
$GPZDA,181601.00,04,12,2018,00,00*65
$GPGGA,181601,5004.0866,N,01954.4549,E,1,05,2.07,201.66,M,41.913,M,,*4C
$GPRMC,181601,A,5004.0866,N,01954.4549,E,2.7255,41.046,041218,,*10
$GPGSA,A,3,13,15,17,24,28,,,,,,,,,,,,,,,,,,,,,,,,,,,,,,,,,,,,,,,,,,,,,,8.5,2.1,8.2*3A
$GPGBS,181601,13.67,M,15.86,M,188.83,M*32
$GPZDA,181602.00,04,12,2018,00,00*66
$GPGGA,181602,5004.0879,N,01954.4560,E,1,05,2.07,199.68,M,41.913,M,,*46
$GPRMC,181602,A,5004.0879,N,01954.4560,E,3.6267,35.563,041218,,*16
$GPGSA,A,3,13,15,17,24,28,,,,,,,,,,,,,,,,,,,,,,,,,,,,,,,,,,,,,,,,,,,,,,8.5,2.1,8.2*3A
$GPGSV,2,1,07,10,13,321,21,12,18,232,22,13,46,168,25,15,59,233,30*75
$GPGSV,2,2,07,17,46,098,19,24,52,290,21,28,31,056,11*41
$GPZDA,181603.00,04,12,2018,00,00*67
$GPGGA,181603,5004.0882,N,01954.4553,E,1,04,2.07,197.58,M,41.913,M,,*4F
$GPRMC,181603,A,5004.0882,N,01954.4553,E,2.8564,24.282,041218,,*10
$GPGSA,A,3,13,15,17,24,28,,,,,,,,,,,,,,,,,,,,,,,,,,,,,,,,,,,,,,,,,,,,,,8.4,2.1,8.2*3B
$GPGBS,181603,13.67,M,15.86,M,188.60,M*3D
$GPZDA,181604.00,04,12,2018,00,00*60
$GPGGA,181604,5004.0879,N,01954.4549,E,1,04,2.23,196.21,M,41.913,M,,*4E
$GPRMC,181604,A,5004.0879,N,01954.4549,E,1.9658,23.119,041218,,*10
$GPGSA,A,3,13,15,17,24,28,,,,,,,,,,,,,,,,,,,,,,,,,,,,,,,,,,,,,,,,,,,,,,13.4,2.2,13.3*39
$GPZDA,181605.00,04,12,2018,00,00*61
$GPGGA,181605,5004.0878,N,01954.4551,E,1,04,2.23,195.16,M,41.913,M,,*40
$GPRMC,181605,A,5004.0878,N,01954.4551,E,1.7463,37.837,041218,,*1D
$GPGSA,A,3,13,15,17,24,28,,,,,,,,,,,,,,,,,,,,,,,,,,,,,,,,,,,,,,,,,,,,,,13.4,2.2,13.3*39
$GPGBS,181605,13.67,M,15.86,M,305.21,M*39
$GPZDA,181606.00,04,12,2018,00,00*62
$GPGGA,181606,5004.0873,N,01954.4545,E,1,04,2.23,194.20,M,41.913,M,,*49
$GPRMC,181606,A,5004.0873,N,01954.4545,E,0.9623,37.955,041218,,*1C
$GPGSA,A,3,13,15,17,24,28,,,,,,,,,,,,,,,,,,,,,,,,,,,,,,,,,,,,,,,,,,,,,,13.5,2.2,13.3*38
$GPZDA,181607.00,04,12,2018,00,00*63
$GPGGA,181607,5004.0866,N,01954.4539,E,1,04,2.23,194.43,M,41.913,M,,*42
$GPRMC,181607,A,5004.0866,N,01954.4539,E,0.3813,79.587,041218,,*1C
$GPGSA,A,3,13,15,17,24,28,,,,,,,,,,,,,,,,,,,,,,,,,,,,,,,,,,,,,,,,,,,,,,13.5,2.2,13.3*38
$GPGBS,181607,13.67,M,15.86,M,305.21,M*3B
$GPZDA,181608.00,04,12,2018,00,00*6C
$GPGGA,181608,5004.0869,N,01954.4540,E,1,05,2.23,191.68,M,41.913,M,,*41
$GPRMC,181608,A,5004.0869,N,01954.4540,E,0.3937,67.978,041218,,*16
$GPGSA,A,3,13,15,17,24,28,,,,,,,,,,,,,,,,,,,,,,,,,,,,,,,,,,,,,,,,,,,,,,13.5,2.2,13.3*38
$GPZDA,181609.00,04,12,2018,00,00*6D
$GPGGA,181609,5004.0871,N,01954.4538,E,1,05,2.07,189.04,M,41.913,M,,*43
$GPRMC,181609,A,5004.0871,N,01954.4538,E,0.1423,60.787,041218,,*12
$GPGSA,A,3,13,15,17,24,28,,,,,,,,,,,,,,,,,,,,,,,,,,,,,,,,,,,,,,,,,,,,,,8.4,2.1,8.2*3B
$GPGBS,181609,13.67,M,15.86,M,187.45,M*3F
$GPZDA,181610.00,04,12,2018,00,00*65
$GPGGA,181610,5004.0877,N,01954.4536,E,1,05,2.07,186.41,M,41.913,M,,*4D
$GPRMC,181610,A,5004.0877,N,01954.4536,E,0.4067,348.112,041218,,*20
$GPGSA,A,3,13,15,17,24,28,,,,,,,,,,,,,,,,,,,,,,,,,,,,,,,,,,,,,,,,,,,,,,8.4,2.1,8.2*3B
$GPZDA,181611.00,04,12,2018,00,00*64
$GPGGA,181611,5004.0883,N,01954.4536,E,1,05,2.06,183.86,M,41.913,M,,*48
$GPRMC,181611,A,5004.0883,N,01954.4536,E,0.7057,350.702,041218,,*24
$GPGSA,A,3,13,15,17,24,28,,,,,,,,,,,,,,,,,,,,,,,,,,,,,,,,,,,,,,,,,,,,,,8.4,2.1,8.1*38
$GPGBS,181611,13.67,M,15.86,M,187.22,M*37
$GPZDA,181612.00,04,12,2018,00,00*67
$GPGGA,181612,5004.0889,N,01954.4538,E,1,05,2.06,180.80,M,41.913,M,,*4A
$GPRMC,181612,A,5004.0889,N,01954.4538,E,1.0000,14.047,041218,,*12
$GPGSA,A,3,13,15,17,24,28,,,,,,,,,,,,,,,,,,,,,,,,,,,,,,,,,,,,,,,,,,,,,,8.4,2.1,8.1*38
$GPGSV,2,1,07,10,13,321,19,12,18,232,24,13,46,168,25,15,59,233,16*7C
$GPGSV,2,2,07,17,46,098,22,24,52,290,25,28,31,056,15*49
$GPZDA,181613.00,04,12,2018,00,00*66
$GPGGA,181613,5004.0896,N,01954.4539,E,1,05,2.06,178.20,M,41.913,M,,*49
$GPRMC,181613,A,5004.0896,N,01954.4539,E,1.2125,15.655,041218,,*1C
$GPGSA,A,3,13,15,17,24,28,,,,,,,,,,,,,,,,,,,,,,,,,,,,,,,,,,,,,,,,,,,,,,8.4,2.1,8.1*38
$GPGBS,181613,13.67,M,15.86,M,186.99,M*34
$GPZDA,181614.00,04,12,2018,00,00*61
$GPGGA,181614,5004.0893,N,01954.4539,E,1,05,2.06,175.05,M,41.913,M,,*41
$GPRMC,181614,A,5004.0893,N,01954.4539,E,0.8138,52.623,041218,,*1B
$GPGSA,A,3,13,15,17,24,28,,,,,,,,,,,,,,,,,,,,,,,,,,,,,,,,,,,,,,,,,,,,,,8.4,2.1,8.1*38
$GPZDA,181615.00,04,12,2018,00,00*60
$GPGGA,181615,5004.0895,N,01954.4524,E,1,05,2.06,172.23,M,41.913,M,,*49
$GPRMC,181615,A,5004.0895,N,01954.4524,E,0.8646,317.350,041218,,*2D
$GPGSA,A,3,13,15,17,24,28,,,,,,,,,,,,,,,,,,,,,,,,,,,,,,,,,,,,,,,,,,,,,,8.4,2.1,8.1*38
$GPGBS,181615,13.67,M,15.86,M,186.53,M*34
$GPZDA,181616.00,04,12,2018,00,00*63
$GPGGA,181616,5004.0893,N,01954.4517,E,1,05,2.06,169.98,M,41.913,M,,*46
$GPRMC,181616,A,5004.0893,N,01954.4517,E,0.7707,291.915,041218,,*27
$GPGSA,A,3,13,15,17,24,28,,,,,,,,,,,,,,,,,,,,,,,,,,,,,,,,,,,,,,,,,,,,,,8.4,2.1,8.1*38
$GPZDA,181617.00,04,12,2018,00,00*62
$GPGGA,181617,5004.0892,N,01954.4515,E,1,05,2.06,167.75,M,41.913,M,,*49
$GPRMC,181617,A,5004.0892,N,01954.4515,E,0.3444,281.256,041218,,*28
$GPGSA,A,3,13,15,17,24,28,,,,,,,,,,,,,,,,,,,,,,,,,,,,,,,,,,,,,,,,,,,,,,8.4,2.1,8.1*38
$GPGBS,181617,13.67,M,15.86,M,186.30,M*33
$GPZDA,181618.00,04,12,2018,00,00*6D
$GPGGA,181618,5004.0891,N,01954.4511,E,1,05,2.06,165.48,M,41.913,M,,*4D
$GPRMC,181618,A,5004.0891,N,01954.4511,E,0.2648,272.054,041218,,*23
$GPGSA,A,3,13,15,17,24,28,,,,,,,,,,,,,,,,,,,,,,,,,,,,,,,,,,,,,,,,,,,,,,8.3,2.1,8.1*3F
$GPZDA,181619.00,04,12,2018,00,00*6C
$GPGGA,181619,5004.0890,N,01954.4502,E,1,05,2.06,162.66,M,41.913,M,,*44
$GPRMC,181619,A,5004.0890,N,01954.4502,E,0.5106,268.809,041218,,*20
$GPGSA,A,3,13,15,17,24,28,,,,,,,,,,,,,,,,,,,,,,,,,,,,,,,,,,,,,,,,,,,,,,8.3,2.1,8.1*3F
$GPGBS,181619,13.67,M,15.86,M,185.84,M*31
$GPZDA,181620.00,04,12,2018,00,00*66
$GPGGA,181620,5004.0888,N,01954.4496,E,1,05,2.06,159.73,M,41.913,M,,*47
$GPRMC,181620,A,5004.0888,N,01954.4496,E,0.3866,273.203,041218,,*2C
$GPGSA,A,3,13,15,17,24,28,,,,,,,,,,,,,,,,,,,,,,,,,,,,,,,,,,,,,,,,,,,,,,8.3,2.1,8.1*3F
$GPZDA,181621.00,04,12,2018,00,00*67
$GPGGA,181621,5004.0910,N,01954.4478,E,1,05,2.05,157.35,M,41.913,M,,*49
$GPRMC,181621,A,5004.0910,N,01954.4478,E,3.0255,327.755,041218,,*21
$GPGSA,A,3,13,15,17,24,28,,,,,,,,,,,,,,,,,,,,,,,,,,,,,,,,,,,,,,,,,,,,,,8.3,2.0,8.1*3E
$GPGBS,181621,13.67,M,15.86,M,185.61,M*31
$GPZDA,181622.00,04,12,2018,00,00*64
$GPGGA,181622,5004.0918,N,01954.4476,E,1,05,2.05,156.09,M,41.913,M,,*42
$GPRMC,181622,A,5004.0918,N,01954.4476,E,3.0659,343.179,041218,,*26
$GPGSA,A,3,13,15,17,24,28,,,,,,,,,,,,,,,,,,,,,,,,,,,,,,,,,,,,,,,,,,,,,,8.3,2.0,8.1*3E
$GPGSV,2,1,07,10,13,321,09,12,18,232,27,13,46,168,24,15,59,233,27*7D
$GPGSV,2,2,07,17,46,098,21,24,52,290,19,28,31,056,24*47
$GPZDA,181623.00,04,12,2018,00,00*65
$GPGGA,181623,5004.0926,N,01954.4466,E,1,05,2.05,153.29,M,41.913,M,,*48
$GPRMC,181623,A,5004.0926,N,01954.4466,E,3.4339,342.480,041218,,*2E
$GPGSA,A,3,13,15,17,24,28,,,,,,,,,,,,,,,,,,,,,,,,,,,,,,,,,,,,,,,,,,,,,,8.3,2.0,8.1*3E
$GPGBS,181623,13.67,M,15.86,M,185.38,M*3F
$GPZDA,181624.00,04,12,2018,00,00*62
$GPGGA,181624,5004.0922,N,01954.4462,E,1,05,2.05,152.62,M,41.913,M,,*41
$GPRMC,181624,A,5004.0922,N,01954.4462,E,2.4867,340.335,041218,,*23
$GPGSA,A,3,13,15,17,24,28,,,,,,,,,,,,,,,,,,,,,,,,,,,,,,,,,,,,,,,,,,,,,,8.3,2.0,8.1*3E
$GPZDA,181625.00,04,12,2018,00,00*63
$GPGGA,181625,5004.0920,N,01954.4459,E,1,05,2.05,154.11,M,41.913,M,,*48
$GPRMC,181625,A,5004.0920,N,01954.4459,E,2.1207,336.332,041218,,*27
$GPGSA,A,3,13,15,17,24,28,,,,,,,,,,,,,,,,,,,,,,,,,,,,,,,,,,,,,,,,,,,,,,8.3,2.0,8.0*3F
$GPGBS,181625,13.67,M,15.86,M,184.92,M*38
$GPZDA,181626.00,04,12,2018,00,00*60
$GPGGA,181626,5004.0900,N,01954.4449,E,1,05,2.05,159.16,M,41.913,M,,*42
$GPRMC,181626,A,5004.0900,N,01954.4449,E,1.0315,320.643,041218,,*23
$GPGSA,A,3,13,15,17,24,28,,,,,,,,,,,,,,,,,,,,,,,,,,,,,,,,,,,,,,,,,,,,,,8.3,2.0,8.0*3F
$GPZDA,181627.00,04,12,2018,00,00*61
$GPGGA,181627,5004.0896,N,01954.4447,E,1,05,2.05,160.97,M,41.913,M,,*40
$GPRMC,181627,A,5004.0896,N,01954.4447,E,0.8137,332.687,041218,,*22
$GPGSA,A,3,13,15,17,24,28,,,,,,,,,,,,,,,,,,,,,,,,,,,,,,,,,,,,,,,,,,,,,,8.3,2.0,8.0*3F
$GPGBS,181627,13.67,M,15.86,M,184.69,M*3E
$GPZDA,181628.00,04,12,2018,00,00*6E
$GPGGA,181628,5004.0892,N,01954.4440,E,1,05,2.05,162.54,M,41.913,M,,*41
$GPRMC,181628,A,5004.0892,N,01954.4440,E,0.8887,304.938,041218,,*22
$GPGSA,A,3,13,15,17,24,28,,,,,,,,,,,,,,,,,,,,,,,,,,,,,,,,,,,,,,,,,,,,,,8.3,2.0,8.0*3F
$GPZDA,181629.00,04,12,2018,00,00*6F
$GPGGA,181629,5004.0889,N,01954.4436,E,1,05,2.05,163.99,M,41.913,M,,*4B
$GPRMC,181629,A,5004.0889,N,01954.4436,E,0.7074,322.263,041218,,*22
$GPGSA,A,3,13,15,17,24,28,,,,,,,,,,,,,,,,,,,,,,,,,,,,,,,,,,,,,,,,,,,,,,8.3,2.0,8.0*3F
$GPGBS,181629,13.67,M,15.86,M,184.46,M*3D
$GPZDA,181630.00,04,12,2018,00,00*67
$GPGGA,181630,5004.0881,N,01954.4436,E,1,05,2.05,163.09,M,41.913,M,,*42
$GPRMC,181630,A,5004.0881,N,01954.4436,E,0.2657,200.190,041218,,*2E
$GPGSA,A,3,13,15,17,24,28,,,,,,,,,,,,,,,,,,,,,,,,,,,,,,,,,,,,,,,,,,,,,,8.3,2.0,8.0*3F
$GPZDA,181631.00,04,12,2018,00,00*66
$GPGGA,181631,5004.0880,N,01954.4434,E,1,05,2.05,163.84,M,41.913,M,,*45
$GPRMC,181631,A,5004.0880,N,01954.4434,E,0.0767,258.901,041218,,*21
$GPGSA,A,3,13,15,17,24,28,,,,,,,,,,,,,,,,,,,,,,,,,,,,,,,,,,,,,,,,,,,,,,8.3,2.0,8.0*3F
$GPGBS,181631,13.67,M,15.86,M,184.00,M*36
$GPZDA,181632.00,04,12,2018,00,00*65
$GPGGA,181632,5004.0875,N,01954.4432,E,1,05,2.04,163.30,M,41.913,M,,*44
$GPRMC,181632,A,5004.0875,N,01954.4432,E,0.1902,179.615,041218,,*28
$GPGSA,A,3,13,15,17,24,28,,,,,,,,,,,,,,,,,,,,,,,,,,,,,,,,,,,,,,,,,,,,,,8.2,2.0,8.0*3E
$GPGSV,2,1,07,10,13,321,08,12,18,232,14,13,46,168,20,15,59,233,27*78
$GPGSV,2,2,07,17,46,097,28,24,52,290,12,28,31,056,21*4F
$GPZDA,181633.00,04,12,2018,00,00*64
$GPGGA,181633,5004.0873,N,01954.4428,E,1,05,2.04,163.97,M,41.913,M,,*45
$GPRMC,181633,A,5004.0873,N,01954.4428,E,0.2878,231.819,041218,,*26
$GPGSA,A,3,13,15,17,24,28,,,,,,,,,,,,,,,,,,,,,,,,,,,,,,,,,,,,,,,,,,,,,,8.2,2.0,8.0*3E
$GPGBS,181633,13.67,M,15.86,M,183.77,M*33
$GPZDA,181634.00,04,12,2018,00,00*63
$GPGGA,181634,5004.0871,N,01954.4427,E,1,05,2.04,165.72,M,41.913,M,,*42
$GPRMC,181634,A,5004.0871,N,01954.4427,E,0.1369,241.288,041218,,*21
$GPGSA,A,3,13,15,17,24,28,,,,,,,,,,,,,,,,,,,,,,,,,,,,,,,,,,,,,,,,,,,,,,8.2,2.0,8.0*3E
$GPZDA,181635.00,04,12,2018,00,00*62
$GPGGA,181635,5004.0868,N,01954.4425,E,1,05,2.04,167.80,M,41.913,M,,*46
$GPRMC,181635,A,5004.0868,N,01954.4425,E,0.3960,271.905,041218,,*26
$GPGSA,A,3,13,15,17,24,28,,,,,,,,,,,,,,,,,,,,,,,,,,,,,,,,,,,,,,,,,,,,,,8.2,2.0,8.0*3E
$GPGBS,181635,13.67,M,15.86,M,183.54,M*34
$GPZDA,181636.00,04,12,2018,00,00*61
$GPGGA,181636,5004.0862,N,01954.4423,E,1,05,2.04,168.87,M,41.913,M,,*41
$GPRMC,181636,A,5004.0862,N,01954.4423,E,0.2497,289.936,041218,,*2A
$GPGSA,A,3,13,15,17,24,28,,,,,,,,,,,,,,,,,,,,,,,,,,,,,,,,,,,,,,,,,,,,,,8.2,2.0,8.0*3E
$GPZDA,181637.00,04,12,2018,00,00*60
$GPGGA,181637,5004.0850,N,01954.4427,E,1,05,2.04,170.79,M,41.913,M,,*4D
$GPRMC,181637,A,5004.0850,N,01954.4427,E,1.1860,175.628,041218,,*28
$GPGSA,A,3,13,15,17,24,28,,,,,,,,,,,,,,,,,,,,,,,,,,,,,,,,,,,,,,,,,,,,,,8.2,2.0,8.0*3E
$GPGBS,181637,13.67,M,15.86,M,183.08,M*3F
$GPZDA,181638.00,04,12,2018,00,00*6F
$GPGGA,181638,5004.0846,N,01954.4427,E,1,05,2.04,170.64,M,41.913,M,,*49
$GPRMC,181638,A,5004.0846,N,01954.4427,E,0.8393,169.947,041218,,*24
$GPGSA,A,3,13,15,17,24,28,,,,,,,,,,,,,,,,,,,,,,,,,,,,,,,,,,,,,,,,,,,,,,8.2,2.0,8.0*3E
$GPZDA,181639.00,04,12,2018,00,00*6E
$GPGGA,181639,5004.0843,N,01954.4427,E,1,05,2.04,170.77,M,41.914,M,,*48
$GPRMC,181639,A,5004.0843,N,01954.4427,E,0.5410,169.020,041218,,*29
$GPGSA,A,3,13,15,17,24,28,,,,,,,,,,,,,,,,,,,,,,,,,,,,,,,,,,,,,,,,,,,,,,8.2,2.0,8.0*3E
$GPGBS,181639,13.67,M,15.86,M,182.85,M*35
$GPZDA,181640.00,04,12,2018,00,00*60
$GPGGA,181640,5004.0839,N,01954.4432,E,1,05,2.04,171.11,M,41.914,M,,*4E
$GPRMC,181640,A,5004.0839,N,01954.4432,E,0.7317,131.684,041218,,*29
$GPGSA,A,3,13,15,17,24,28,,,,,,,,,,,,,,,,,,,,,,,,,,,,,,,,,,,,,,,,,,,,,,8.2,2.0,7.9*38
$GPZDA,181641.00,04,12,2018,00,00*61
$GPGGA,181641,5004.0833,N,01954.4436,E,1,05,2.04,171.07,M,41.914,M,,*46
$GPRMC,181641,A,5004.0833,N,01954.4436,E,1.1310,133.721,041218,,*2A
$GPGSA,A,3,13,15,17,24,28,,,,,,,,,,,,,,,,,,,,,,,,,,,,,,,,,,,,,,,,,,,,,,8.2,2.0,7.9*38
$GPGBS,181641,13.67,M,15.86,M,182.62,M*33
$GPZDA,181642.00,04,12,2018,00,00*62
$GPGGA,181642,5004.0831,N,01954.4438,E,1,05,2.03,171.49,M,41.914,M,,*44
$GPRMC,181642,A,5004.0831,N,01954.4438,E,0.7507,127.422,041218,,*27
$GPGSA,A,3,13,15,17,24,28,,,,,,,,,,,,,,,,,,,,,,,,,,,,,,,,,,,,,,,,,,,,,,8.2,2.0,7.9*38
$GPGSV,2,1,07,10,13,321,08,12,18,232,24,13,46,168,20,15,59,233,25*79
$GPGSV,2,2,07,17,46,097,21,24,52,290,16,28,31,056,20*43
$GPZDA,181643.00,04,12,2018,00,00*63
$GPGGA,181643,5004.0829,N,01954.4441,E,1,05,2.03,171.90,M,41.914,M,,*46
$GPRMC,181643,A,5004.0829,N,01954.4441,E,0.7260,115.697,041218,,*2A
$GPGSA,A,3,13,15,17,24,28,,,,,,,,,,,,,,,,,,,,,,,,,,,,,,,,,,,,,,,,,,,,,,8.2,2.0,7.9*38
$GPGBS,181643,13.67,M,15.86,M,182.16,M*32
$GPZDA,181644.00,04,12,2018,00,00*64
$GPGGA,181644,5004.0828,N,01954.4445,E,1,05,2.03,172.37,M,41.914,M,,*4A
$GPRMC,181644,A,5004.0828,N,01954.4445,E,0.7310,107.017,041218,,*23
$GPGSA,A,3,13,15,17,24,28,,,,,,,,,,,,,,,,,,,,,,,,,,,,,,,,,,,,,,,,,,,,,,8.2,2.0,7.9*38
$GPZDA,181645.00,04,12,2018,00,00*65
$GPGGA,181645,5004.0826,N,01954.4448,E,1,05,2.03,173.50,M,41.914,M,,*48
$GPRMC,181645,A,5004.0826,N,01954.4448,E,0.6352,115.262,041218,,*25
$GPGSA,A,3,13,15,17,24,28,,,,,,,,,,,,,,,,,,,,,,,,,,,,,,,,,,,,,,,,,,,,,,8.2,2.0,7.9*38
$GPGBS,181645,13.67,M,15.86,M,181.93,M*3A
$GPZDA,181646.00,04,12,2018,00,00*66
$GPGGA,181646,5004.0825,N,01954.4447,E,1,05,2.03,174.08,M,41.914,M,,*4D
$GPRMC,181646,A,5004.0825,N,01954.4447,E,0.3825,147.732,041218,,*23
$GPGSA,A,3,13,15,17,24,28,,,,,,,,,,,,,,,,,,,,,,,,,,,,,,,,,,,,,,,,,,,,,,8.2,2.0,7.9*38
$GPZDA,181647.00,04,12,2018,00,00*67
$GPGGA,181647,5004.0829,N,01954.4444,E,1,05,2.03,174.63,M,41.914,M,,*4E
$GPRMC,181647,A,5004.0829,N,01954.4444,E,0.2578,289.576,041218,,*2A
$GPGSA,A,3,13,15,17,24,28,,,,,,,,,,,,,,,,,,,,,,,,,,,,,,,,,,,,,,,,,,,,,,8.2,2.0,7.9*38
$GPGBS,181647,13.67,M,15.86,M,181.47,M*31
$GPZDA,181648.00,04,12,2018,00,00*68
$GPGGA,181648,5004.0826,N,01954.4442,E,1,05,2.03,175.04,M,41.914,M,,*48
$GPRMC,181648,A,5004.0826,N,01954.4442,E,0.3977,232.938,041218,,*28
$GPGSA,A,3,13,15,17,24,28,,,,,,,,,,,,,,,,,,,,,,,,,,,,,,,,,,,,,,,,,,,,,,8.2,2.0,7.9*38
$GPZDA,181649.00,04,12,2018,00,00*69
$GPGGA,181649,5004.0822,N,01954.4443,E,1,05,2.03,175.36,M,41.914,M,,*4D
$GPRMC,181649,A,5004.0822,N,01954.4443,E,0.5751,199.729,041218,,*2C
$GPGSA,A,3,13,15,17,24,28,,,,,,,,,,,,,,,,,,,,,,,,,,,,,,,,,,,,,,,,,,,,,,8.1,2.0,7.9*3B
$GPGBS,181649,13.67,M,15.86,M,181.24,M*3A
$GPZDA,181650.00,04,12,2018,00,00*61
$GPGGA,181650,5004.0823,N,01954.4443,E,1,05,2.03,176.00,M,41.914,M,,*42
$GPRMC,181650,A,5004.0823,N,01954.4443,E,0.3494,180.000,041218,,*2D
$GPGSA,A,3,13,15,17,24,28,,,,,,,,,,,,,,,,,,,,,,,,,,,,,,,,,,,,,,,,,,,,,,8.1,2.0,7.9*3B
$GPZDA,181651.00,04,12,2018,00,00*60
$GPGGA,181651,5004.0824,N,01954.4440,E,1,05,2.03,176.94,M,41.914,M,,*4A
$GPRMC,181651,A,5004.0824,N,01954.4440,E,0.3050,238.825,041218,,*2B
$GPGSA,A,3,13,15,17,24,28,,,,,,,,,,,,,,,,,,,,,,,,,,,,,,,,,,,,,,,,,,,,,,8.1,2.0,7.9*3B
$GPGBS,181651,13.67,M,15.86,M,181.01,M*34
$GPZDA,181652.00,04,12,2018,00,00*63
$GPGGA,181652,5004.0827,N,01954.4442,E,1,05,2.03,176.38,M,41.914,M,,*4E
$GPRMC,181652,A,5004.0827,N,01954.4442,E,0.3522,30.487,041218,,*17
$GPGSA,A,3,13,15,17,24,28,,,,,,,,,,,,,,,,,,,,,,,,,,,,,,,,,,,,,,,,,,,,,,8.1,2.0,7.9*3B
$GPGSV,2,1,07,10,13,321,08,12,18,232,20,13,46,168,20,15,59,233,29*71
$GPGSV,2,2,07,17,46,097,22,24,52,290,17,28,31,056,24*45
$GPZDA,181653.00,04,12,2018,00,00*62
$GPGGA,181653,5004.0826,N,01954.4435,E,1,05,2.02,176.49,M,41.914,M,,*49
$GPRMC,181653,A,5004.0826,N,01954.4435,E,0.6150,274.340,041218,,*2D
$GPGSA,A,3,13,15,17,24,28,,,,,,,,,,,,,,,,,,,,,,,,,,,,,,,,,,,,,,,,,,,,,,8.1,2.0,7.9*3B
$GPGBS,181653,13.67,M,15.86,M,180.78,M*39
$GPZDA,181654.00,04,12,2018,00,00*65
$GPGGA,181654,5004.0826,N,01954.4438,E,1,05,2.02,177.27,M,41.914,M,,*4A
$GPRMC,181654,A,5004.0826,N,01954.4438,E,0.2765,312.206,041218,,*21
$GPGSA,A,3,13,15,17,24,28,,,,,,,,,,,,,,,,,,,,,,,,,,,,,,,,,,,,,,,,,,,,,,8.1,2.0,7.8*3A
$GPZDA,181655.00,04,12,2018,00,00*64
$GPGGA,181655,5004.0831,N,01954.4430,E,1,05,2.02,177.43,M,41.914,M,,*47
$GPRMC,181655,A,5004.0831,N,01954.4430,E,0.8876,310.307,041218,,*2B
$GPGSA,A,3,13,15,17,24,28,,,,,,,,,,,,,,,,,,,,,,,,,,,,,,,,,,,,,,,,,,,,,,8.1,2.0,7.8*3A
$GPGBS,181655,13.67,M,15.86,M,180.32,M*31
$GPZDA,181656.00,04,12,2018,00,00*67
$GPGGA,181656,5004.0830,N,01954.4431,E,1,05,2.02,178.32,M,41.914,M,,*4D
$GPRMC,181656,A,5004.0830,N,01954.4431,E,0.6046,324.291,041218,,*24
$GPGSA,A,3,13,15,17,24,28,,,,,,,,,,,,,,,,,,,,,,,,,,,,,,,,,,,,,,,,,,,,,,8.1,2.0,7.8*3A
$GPZDA,181657.00,04,12,2018,00,00*66
$GPGGA,181657,5004.0830,N,01954.4431,E,1,05,2.02,178.87,M,41.914,M,,*42
$GPRMC,181657,A,5004.0830,N,01954.4431,E,0.5676,325.320,041218,,*29
$GPGSA,A,3,13,15,17,24,28,,,,,,,,,,,,,,,,,,,,,,,,,,,,,,,,,,,,,,,,,,,,,,8.1,2.0,7.8*3A
$GPGBS,181657,13.67,M,15.86,M,180.09,M*3B
$GPZDA,181658.00,04,12,2018,00,00*69
$GPGGA,181658,5004.0826,N,01954.4435,E,1,05,2.02,179.35,M,41.914,M,,*46
$GPRMC,181658,A,5004.0826,N,01954.4435,E,0.1307,244.701,041218,,*23
$GPGSA,A,3,13,15,17,24,28,,,,,,,,,,,,,,,,,,,,,,,,,,,,,,,,,,,,,,,,,,,,,,8.1,2.0,7.8*3A
$GPZDA,181659.00,04,12,2018,00,00*68
$GPGGA,181659,5004.0827,N,01954.4436,E,1,05,2.02,179.83,M,41.914,M,,*48
$GPRMC,181659,A,5004.0827,N,01954.4436,E,0.1125,46.064,041218,,*16
$GPGSA,A,3,13,15,17,24,28,,,,,,,,,,,,,,,,,,,,,,,,,,,,,,,,,,,,,,,,,,,,,,8.1,2.0,7.8*3A
$GPGBS,181659,13.67,M,15.86,M,179.86,M*34
$GPZDA,181700.00,04,12,2018,00,00*65
$GPGGA,181700,5004.0828,N,01954.4434,E,1,05,2.02,179.64,M,41.914,M,,*41
$GPRMC,181700,A,5004.0828,N,01954.4434,E,0.2103,302.971,041218,,*2F
$GPGSA,A,3,13,15,17,24,28,,,,,,,,,,,,,,,,,,,,,,,,,,,,,,,,,,,,,,,,,,,,,,8.1,2.0,7.8*3A
$GPZDA,181701.00,04,12,2018,00,00*64
$GPGGA,181701,5004.0827,N,01954.4433,E,1,05,2.02,180.33,M,41.914,M,,*4C
$GPRMC,181701,A,5004.0827,N,01954.4433,E,0.4082,265.797,041218,,*2E
$GPGSA,A,3,13,15,17,24,28,,,,,,,,,,,,,,,,,,,,,,,,,,,,,,,,,,,,,,,,,,,,,,8.1,2.0,7.8*3A
$GPGBS,181701,13.67,M,15.86,M,179.40,M*32
$GPZDA,181702.00,04,12,2018,00,00*67
$GPGGA,181702,5004.0821,N,01954.4432,E,1,05,2.02,179.49,M,41.914,M,,*43
$GPRMC,181702,A,5004.0821,N,01954.4432,E,0.8783,225.592,041218,,*23
$GPGSA,A,3,13,15,17,24,28,,,,,,,,,,,,,,,,,,,,,,,,,,,,,,,,,,,,,,,,,,,,,,8.1,2.0,7.8*3A
