{"class":"VERSION","release":"3.16","rev":"3.16-4","proto_major":3,"proto_minor":11}
{"class":"DEVICES","devices":[{"class":"DEVICE","path":"/dev/serial0","driver":"u-blox","subtype":"SW ROM CORE 3.01 (107888),HW 00080000,FWVER=SPG 3.01,PROTVER=18","activated":"2018-12-16T17:39:09.547Z","flags":1,"native":1,"bps":9600,"parity":"N","stopbits":1,"cycle":1.00,"mincycle":0.25}]}
{"class":"WATCH","enable":true,"json":false,"nmea":true,"raw":0,"scaled":false,"timing":false,"split24":false,"pps":false}
$GPZDA,173910.00,16,12,2018,00,00*64
$GPGGA,173910,5002.8306,N,01953.2874,E,1,15,0.68,195.89,M,41.969,M,,*47
$GPRMC,173910,A,5002.8306,N,01953.2874,E,0.0378,180.572,161218,,*25
$GPGSA,A,3,12,13,15,17,19,20,24,28,69,70,78,79,81,87,88,,,,,,,,,,,,,,,,,,,,,,,,,,,,,,,,,,,,1.4,0.7,1.3*38
$GPGBS,173910,10.42,M,12.08,M,29.21,M*07
$GPZDA,173911.00,16,12,2018,00,00*65
$GPGGA,173911,5002.8306,N,01953.2873,E,1,15,0.68,195.37,M,41.969,M,,*44
$GPRMC,173911,A,5002.8306,N,01953.2873,E,0.4811,235.297,161218,,*22
$GPGSA,A,3,12,13,15,17,19,20,24,28,69,70,78,79,81,87,88,,,,,,,,,,,,,,,,,,,,,,,,,,,,,,,,,,,,1.4,0.7,1.3*38
$GPZDA,173912.00,16,12,2018,00,00*66
$GPGGA,173912,5002.8306,N,01953.2872,E,1,15,0.66,195.18,M,41.969,M,,*45
$GPRMC,173912,A,5002.8306,N,01953.2872,E,0.1871,218.586,161218,,*2B
$GPGSA,A,3,12,13,15,17,19,20,24,28,69,70,78,79,81,87,88,,,,,,,,,,,,,,,,,,,,,,,,,,,,,,,,,,,,1.4,0.7,1.2*39
$GPGBS,173912,10.42,M,12.08,M,28.06,M*01
$GPZDA,173913.00,16,12,2018,00,00*67
$GPGGA,173913,5002.8307,N,01953.2872,E,1,15,0.66,195.32,M,41.969,M,,*4D
$GPRMC,173913,A,5002.8307,N,01953.2872,E,0.0400,109.422,161218,,*2C
$GPGSA,A,3,12,13,15,17,19,20,24,28,69,70,78,79,81,87,88,,,,,,,,,,,,,,,,,,,,,,,,,,,,,,,,,,,,1.4,0.7,1.2*39
$GPZDA,173914.00,16,12,2018,00,00*60
$GPGGA,173914,5002.8307,N,01953.2871,E,1,13,0.66,194.79,M,41.969,M,,*41
$GPRMC,173914,A,5002.8307,N,01953.2871,E,0.2344,236.228,161218,,*2E
$GPGSA,A,3,12,13,15,17,19,20,24,28,69,70,78,79,81,87,88,,,,,,,,,,,,,,,,,,,,,,,,,,,,,,,,,,,,1.4,0.7,1.2*39
$GPGBS,173914,10.42,M,12.08,M,28.06,M*07
$GPZDA,173915.00,16,12,2018,00,00*61
$GPGGA,173915,5002.8308,N,01953.2871,E,1,13,0.73,194.92,M,41.969,M,,*4E
$GPRMC,173915,A,5002.8308,N,01953.2871,E,0.1679,94.841,161218,,*17
$GPGSA,A,3,12,13,15,17,19,20,24,28,69,70,78,79,81,87,88,,,,,,,,,,,,,,,,,,,,,,,,,,,,,,,,,,,,1.5,0.7,1.3*39
$GPZDA,173916.00,16,12,2018,00,00*62
$GPGGA,173916,5002.8307,N,01953.2870,E,1,13,0.73,194.70,M,41.969,M,,*4F
$GPRMC,173916,A,5002.8307,N,01953.2870,E,0.1902,231.174,161218,,*2B
$GPGSA,A,3,12,13,15,17,19,20,24,28,69,70,78,79,81,87,88,,,,,,,,,,,,,,,,,,,,,,,,,,,,,,,,,,,,1.5,0.7,1.3*39
$GPGBS,173916,10.42,M,12.08,M,30.13,M*08
$GPGSV,5,1,20,01,08,037,07,10,14,316,25,11,04,026,14,12,23,234,23*71
$GPGSV,5,2,20,13,41,168,23,15,56,224,26,17,47,090,18,18,02,012,08*77
$GPGSV,5,3,20,19,42,134,32,20,13,288,22,24,56,292,26,68,17,205,16*76
$GPGSV,5,4,20,69,44,256,25,70,25,327,26,78,51,058,20,79,60,303,21*7E
$GPGSV,5,5,20,80,13,273,20,81,15,140,21,87,27,036,25,88,36,092,07*7F
$GPZDA,173917.00,16,12,2018,00,00*63
$GPGGA,173917,5002.8306,N,01953.2868,E,1,15,0.73,194.29,M,41.969,M,,*4C
$GPRMC,173917,A,5002.8306,N,01953.2868,E,0.6135,214.082,161218,,*26
$GPGSA,A,3,12,13,15,19,20,24,69,70,78,79,81,87,88,,,,,,,,,,,,,,,,,,,,,,,,,,,,,,,,,,,,,,1.5,0.7,1.3*35
$GPGBS,173917,10.42,M,12.08,M,30.13,M*09
$GPZDA,173918.00,16,12,2018,00,00*6C
$GPGGA,173918,5002.8307,N,01953.2866,E,1,15,0.68,194.70,M,41.969,M,,*4A
$GPRMC,173918,A,5002.8307,N,01953.2866,E,0.3940,229.737,161218,,*2E
$GPGSA,A,3,12,13,15,19,20,24,69,70,78,79,81,87,88,,,,,,,,,,,,,,,,,,,,,,,,,,,,,,,,,,,,,,1.4,0.7,1.2*35
$GPZDA,173919.00,16,12,2018,00,00*6D
$GPGGA,173919,5002.8307,N,01953.2866,E,1,15,0.68,195.53,M,41.969,M,,*4B
$GPRMC,173919,A,5002.8307,N,01953.2866,E,0.1163,151.873,161218,,*27
$GPGSA,A,3,12,13,15,19,20,24,69,70,78,79,81,87,88,,,,,,,,,,,,,,,,,,,,,,,,,,,,,,,,,,,,,,1.4,0.7,1.2*35
$GPGBS,173919,10.42,M,12.08,M,28.29,M*07
$GPZDA,173920.00,16,12,2018,00,00*67
$GPGGA,173920,5002.8308,N,01953.2867,E,1,14,0.68,196.05,M,41.969,M,,*4E
$GPRMC,173920,A,5002.8308,N,01953.2867,E,0.2270,62.121,161218,,*1E
$GPGSA,A,3,12,13,15,19,20,24,69,70,78,79,81,87,88,,,,,,,,,,,,,,,,,,,,,,,,,,,,,,,,,,,,,,1.4,0.7,1.2*35
$GPZDA,173921.00,16,12,2018,00,00*66
$GPGGA,173921,5002.8309,N,01953.2868,E,1,15,0.71,196.77,M,41.969,M,,*4D
$GPRMC,173921,A,5002.8309,N,01953.2868,E,0.2630,42.396,161218,,*1D
$GPGSA,A,3,12,13,15,19,20,24,69,70,78,79,81,87,88,,,,,,,,,,,,,,,,,,,,,,,,,,,,,,,,,,,,,,1.4,0.7,1.2*35
$GPGBS,173921,10.42,M,12.08,M,28.29,M*0C
$GPZDA,173922.00,16,12,2018,00,00*65
$GPGGA,173922,5002.8311,N,01953.2868,E,1,15,0.68,197.38,M,41.969,M,,*45
$GPRMC,173922,A,5002.8311,N,01953.2868,E,0.2371,41.637,161218,,*1A
$GPGSA,A,3,12,13,15,19,20,24,69,70,78,79,81,87,88,,,,,,,,,,,,,,,,,,,,,,,,,,,,,,,,,,,,,,1.4,0.7,1.2*35
$GPZDA,173923.00,16,12,2018,00,00*64
$GPGGA,173923,5002.8311,N,01953.2868,E,1,15,0.68,197.45,M,41.969,M,,*4E
$GPRMC,173923,A,5002.8311,N,01953.2868,E,0.1029,279.309,161218,,*27
$GPGSA,A,3,12,13,15,19,20,24,69,70,78,79,81,87,88,,,,,,,,,,,,,,,,,,,,,,,,,,,,,,,,,,,,,,1.4,0.7,1.2*35
$GPGBS,173923,10.42,M,12.08,M,28.29,M*0E
$GPZDA,173924.00,16,12,2018,00,00*63
$GPGGA,173924,5002.8311,N,01953.2868,E,1,15,0.68,197.83,M,41.969,M,,*43
$GPRMC,173924,A,5002.8311,N,01953.2868,E,0.1693,195.316,161218,,*28
$GPGSA,A,3,12,13,15,19,20,24,69,70,78,79,81,87,88,,,,,,,,,,,,,,,,,,,,,,,,,,,,,,,,,,,,,,1.4,0.7,1.2*35
$GPZDA,173925.00,16,12,2018,00,00*62
$GPGGA,173925,5002.8312,N,01953.2869,E,1,15,0.68,198.54,M,41.969,M,,*45
$GPRMC,173925,A,5002.8312,N,01953.2869,E,0.2951,39.436,161218,,*1B
$GPGSA,A,3,12,13,15,19,20,24,69,70,78,79,81,87,88,,,,,,,,,,,,,,,,,,,,,,,,,,,,,,,,,,,,,,1.4,0.7,1.2*35
$GPGBS,173925,10.42,M,12.08,M,28.29,M*08
$GPZDA,173926.00,16,12,2018,00,00*61
$GPGGA,173926,5002.8313,N,01953.2870,E,1,15,0.68,199.09,M,41.969,M,,*46
$GPRMC,173926,A,5002.8313,N,01953.2870,E,0.2748,44.012,161218,,*1F
$GPGSA,A,3,12,13,15,19,20,24,69,70,78,79,81,87,88,,,,,,,,,,,,,,,,,,,,,,,,,,,,,,,,,,,,,,1.4,0.7,1.2*35
$GPGSV,5,1,18,10,14,316,24,12,23,235,25,13,41,168,25,15,56,224,26*7B
$GPGSV,5,2,18,17,47,090,20,19,42,134,34,20,13,288,23,24,56,292,28*73
$GPGSV,5,3,18,28,27,056,14,68,17,205,13,69,44,256,26,70,25,327,27*7B
$GPGSV,5,4,18,78,51,058,22,79,60,303,21,80,13,273,19,81,15,140,21*73
$GPGSV,5,5,18,87,27,036,25,88,36,092,12*75
$GPZDA,173927.00,16,12,2018,00,00*60
$GPGGA,173927,5002.8314,N,01953.2872,E,1,15,0.68,199.85,M,41.969,M,,*46
$GPRMC,173927,A,5002.8314,N,01953.2872,E,0.3661,41.853,161218,,*18
$GPGSA,A,3,12,13,15,17,19,20,24,68,69,70,78,79,81,87,88,,,,,,,,,,,,,,,,,,,,,,,,,,,,,,,,,,,,1.4,0.7,1.2*3D
$GPGBS,173927,10.42,M,12.08,M,28.29,M*0A
$GPZDA,173928.00,16,12,2018,00,00*6F
$GPGGA,173928,5002.8316,N,01953.2873,E,1,15,0.68,200.40,M,41.969,M,,*40
$GPRMC,173928,A,5002.8316,N,01953.2873,E,0.3323,32.734,161218,,*1D
$GPGSA,A,3,12,13,15,17,19,20,24,68,69,70,78,79,81,87,88,,,,,,,,,,,,,,,,,,,,,,,,,,,,,,,,,,,,1.4,0.7,1.2*3D
$GPZDA,173929.00,16,12,2018,00,00*6E
$GPGGA,173929,5002.8316,N,01953.2873,E,1,14,0.68,200.45,M,41.969,M,,*45
$GPRMC,173929,A,5002.8316,N,01953.2873,E,0.1093,308.135,161218,,*2B
$GPGSA,A,3,12,13,15,17,19,20,24,68,69,70,78,79,81,87,88,,,,,,,,,,,,,,,,,,,,,,,,,,,,,,,,,,,,1.4,0.7,1.2*3D
$GPGBS,173929,10.42,M,12.08,M,28.29,M*04
$GPZDA,173930.00,16,12,2018,00,00*66
$GPGGA,173930,5002.8316,N,01953.2873,E,1,14,0.72,200.60,M,41.969,M,,*41
$GPRMC,173930,A,5002.8316,N,01953.2873,E,0.1205,313.169,161218,,*2D
$GPGSA,A,3,12,13,15,17,19,20,24,68,69,70,78,79,81,87,88,,,,,,,,,,,,,,,,,,,,,,,,,,,,,,,,,,,,1.6,0.7,1.4*39
$GPZDA,173931.00,16,12,2018,00,00*67
$GPGGA,173931,5002.8316,N,01953.2873,E,1,14,0.72,200.67,M,41.969,M,,*47
$GPRMC,173931,A,5002.8316,N,01953.2873,E,0.1131,151.895,161218,,*26
$GPGSA,A,3,12,13,15,17,19,20,24,68,69,70,78,79,81,87,88,,,,,,,,,,,,,,,,,,,,,,,,,,,,,,,,,,,,1.6,0.7,1.4*39
$GPGBS,173931,10.42,M,12.08,M,31.74,M*0D
$GPZDA,173932.00,16,12,2018,00,00*64
$GPGGA,173932,5002.8316,N,01953.2874,E,1,14,0.72,201.03,M,41.969,M,,*40
$GPRMC,173932,A,5002.8316,N,01953.2874,E,0.0707,355.902,161218,,*29
$GPGSA,A,3,12,13,15,17,19,20,24,68,69,70,78,79,81,87,88,,,,,,,,,,,,,,,,,,,,,,,,,,,,,,,,,,,,1.6,0.7,1.4*39
$GPZDA,173933.00,16,12,2018,00,00*65
$GPGGA,173933,5002.8317,N,01953.2875,E,1,14,0.72,201.53,M,41.969,M,,*44
$GPRMC,173933,A,5002.8317,N,01953.2875,E,0.3513,53.912,161218,,*18
$GPGSA,A,3,12,13,15,17,19,20,24,68,69,70,78,79,81,87,88,,,,,,,,,,,,,,,,,,,,,,,,,,,,,,,,,,,,1.6,0.7,1.4*39
$GPGBS,173933,10.42,M,12.08,M,31.74,M*0F
$GPZDA,173934.00,16,12,2018,00,00*62
$GPGGA,173934,5002.8317,N,01953.2876,E,1,14,0.72,201.76,M,41.969,M,,*47
$GPRMC,173934,A,5002.8317,N,01953.2876,E,0.0457,61.216,161218,,*10
$GPGSA,A,3,12,13,15,17,19,20,24,68,69,70,78,79,81,87,88,,,,,,,,,,,,,,,,,,,,,,,,,,,,,,,,,,,,1.6,0.7,1.4*39
$GPZDA,173935.00,16,12,2018,00,00*63
$GPGGA,173935,5002.8316,N,01953.2876,E,1,14,0.72,201.71,M,41.969,M,,*40
$GPRMC,173935,A,5002.8316,N,01953.2876,E,0.1001,167.442,161218,,*26
$GPGSA,A,3,12,13,15,17,19,20,24,68,69,70,78,79,81,87,88,,,,,,,,,,,,,,,,,,,,,,,,,,,,,,,,,,,,1.6,0.7,1.4*39
$GPGBS,173935,10.42,M,12.08,M,31.74,M*09
$GPZDA,173936.00,16,12,2018,00,00*60
$GPGGA,173936,5002.8316,N,01953.2876,E,1,14,0.72,201.61,M,41.969,M,,*42
$GPRMC,173936,A,5002.8316,N,01953.2876,E,0.1441,230.533,161218,,*23
$GPGSA,A,3,12,13,15,17,19,20,24,68,69,70,78,79,81,87,88,,,,,,,,,,,,,,,,,,,,,,,,,,,,,,,,,,,,1.6,0.7,1.4*39
$GPGSV,5,1,18,10,14,316,23,12,23,235,22,13,40,168,25,15,56,223,26*7D
$GPGSV,5,2,18,17,48,089,24,19,42,133,34,20,13,288,23,24,56,292,29*76
$GPGSV,5,3,18,28,27,056,12,68,17,205,16,69,44,256,26,70,25,327,28*77
$GPGSV,5,4,18,78,51,058,22,79,60,303,24,80,13,273,15,81,15,140,17*7F
$GPGSV,5,5,18,87,27,036,27,88,36,092,16*73
$GPZDA,173937.00,16,12,2018,00,00*61
$GPGGA,173937,5002.8316,N,01953.2874,E,1,15,0.72,201.44,M,41.969,M,,*47
$GPRMC,173937,A,5002.8316,N,01953.2874,E,0.3307,264.172,161218,,*27
$GPGSA,A,3,12,13,15,17,19,20,24,68,69,70,78,79,87,88,,,,,,,,,,,,,,,,,,,,,,,,,,,,,,,,,,,,,1.6,0.7,1.4*30
$GPGBS,173937,10.42,M,12.08,M,31.74,M*0B
$GPZDA,173938.00,16,12,2018,00,00*6E
$GPGGA,173938,5002.8316,N,01953.2874,E,1,15,0.68,201.66,M,41.969,M,,*43
$GPRMC,173938,A,5002.8316,N,01953.2874,E,0.1259,24.073,161218,,*16
$GPGSA,A,3,12,13,15,17,19,20,24,68,69,70,78,79,87,88,,,,,,,,,,,,,,,,,,,,,,,,,,,,,,,,,,,,,1.4,0.7,1.2*34
$GPZDA,173939.00,16,12,2018,00,00*6F
$GPGGA,173939,5002.8315,N,01953.2873,E,1,15,0.69,201.42,M,41.969,M,,*41
$GPRMC,173939,A,5002.8315,N,01953.2873,E,0.2788,239.704,161218,,*20
$GPGSA,A,3,12,13,15,17,19,20,24,68,69,70,78,79,87,88,,,,,,,,,,,,,,,,,,,,,,,,,,,,,,,,,,,,,1.5,0.7,1.3*34
$GPGBS,173939,10.42,M,12.08,M,30.36,M*02
$GPZDA,173940.00,16,12,2018,00,00*61
$GPGGA,173940,5002.8315,N,01953.2872,E,1,15,0.69,201.16,M,41.969,M,,*4F
$GPRMC,173940,A,5002.8315,N,01953.2872,E,0.1783,201.900,161218,,*26
$GPGSA,A,3,12,13,15,17,19,20,24,68,69,70,78,79,87,88,,,,,,,,,,,,,,,,,,,,,,,,,,,,,,,,,,,,,1.5,0.7,1.3*34
$GPZDA,173941.00,16,12,2018,00,00*60
$GPGGA,173941,5002.8315,N,01953.2872,E,1,13,0.69,201.15,M,41.969,M,,*4B
$GPRMC,173941,A,5002.8315,N,01953.2872,E,0.0540,253.412,161218,,*22
$GPGSA,A,3,12,13,15,17,19,20,24,68,69,70,78,79,87,88,,,,,,,,,,,,,,,,,,,,,,,,,,,,,,,,,,,,,1.5,0.7,1.3*34
$GPGBS,173941,10.42,M,12.08,M,30.36,M*0D
$GPZDA,173942.00,16,12,2018,00,00*63
$GPGGA,173942,5002.8315,N,01953.2872,E,1,14,0.79,200.82,M,41.969,M,,*41
$GPRMC,173942,A,5002.8315,N,01953.2872,E,0.2824,212.397,161218,,*23
$GPGSA,A,3,12,13,15,17,19,20,24,68,69,70,78,79,87,88,,,,,,,,,,,,,,,,,,,,,,,,,,,,,,,,,,,,,1.7,0.8,1.5*3F
$GPZDA,173943.00,16,12,2018,00,00*62
$GPGGA,173943,5002.8315,N,01953.2872,E,1,14,0.76,200.99,M,41.969,M,,*45
$GPRMC,173943,A,5002.8315,N,01953.2872,E,0.0226,184.921,161218,,*23
$GPGSA,A,3,12,13,15,17,19,20,24,68,69,70,78,79,87,88,,,,,,,,,,,,,,,,,,,,,,,,,,,,,,,,,,,,,1.7,0.8,1.5*3F
$GPGBS,173943,10.42,M,12.08,M,34.27,M*0B
$GPZDA,173944.00,16,12,2018,00,00*65
$GPGGA,173944,5002.8316,N,01953.2872,E,1,15,0.76,201.10,M,41.969,M,,*40
$GPRMC,173944,A,5002.8316,N,01953.2872,E,0.1426,54.357,161218,,*17
$GPGSA,A,3,12,13,15,17,19,20,24,68,69,70,78,79,87,88,,,,,,,,,,,,,,,,,,,,,,,,,,,,,,,,,,,,,1.7,0.8,1.5*3F
$GPZDA,173945.00,16,12,2018,00,00*64
$GPGGA,173945,5002.8316,N,01953.2872,E,1,15,0.68,201.04,M,41.969,M,,*4B
$GPRMC,173945,A,5002.8316,N,01953.2872,E,0.0654,284.301,161218,,*2C
$GPGSA,A,3,12,13,15,17,19,20,24,68,69,70,78,79,87,88,,,,,,,,,,,,,,,,,,,,,,,,,,,,,,,,,,,,,1.4,0.7,1.3*35
$GPGBS,173945,10.42,M,12.08,M,29.21,M*07
$GPZDA,173946.00,16,12,2018,00,00*67
$GPGGA,173946,5002.8315,N,01953.2871,E,1,15,0.68,200.43,M,41.969,M,,*4A
$GPRMC,173946,A,5002.8315,N,01953.2871,E,0.2985,226.855,161218,,*2C
$GPGSA,A,3,12,13,15,17,19,20,24,68,69,70,78,79,87,88,,,,,,,,,,,,,,,,,,,,,,,,,,,,,,,,,,,,,1.4,0.7,1.3*35
$GPGSV,5,1,17,10,14,316,19,12,23,235,23,13,40,168,23,15,56,223,25*7F
$GPGSV,5,2,17,17,48,089,25,19,42,133,33,20,13,288,23,24,57,292,29*7E
$GPGSV,5,3,17,28,27,057,14,69,44,256,26,70,25,327,27,78,51,058,23*7F
$GPGSV,5,4,17,79,60,303,24,80,13,273,15,81,15,140,08,87,27,036,26*73
$GPGSV,5,5,17,88,36,092,18*48
$GPZDA,173947.00,16,12,2018,00,00*66
$GPGGA,173947,5002.8315,N,01953.2871,E,1,14,0.68,200.62,M,41.969,M,,*49
$GPRMC,173947,A,5002.8315,N,01953.2871,E,0.0953,197.322,161218,,*26
$GPGSA,A,3,12,13,15,17,19,20,24,28,69,70,78,79,81,87,88,,,,,,,,,,,,,,,,,,,,,,,,,,,,,,,,,,,,1.4,0.7,1.3*38
$GPGBS,173947,10.42,M,12.08,M,29.21,M*05
$GPZDA,173948.00,16,12,2018,00,00*69
$GPGGA,173948,5002.8315,N,01953.2871,E,1,15,0.76,200.42,M,41.969,M,,*4A
$GPRMC,173948,A,5002.8315,N,01953.2871,E,0.0287,328.130,161218,,*2C
$GPGSA,A,3,12,13,15,17,19,20,24,28,69,70,78,79,81,87,88,,,,,,,,,,,,,,,,,,,,,,,,,,,,,,,,,,,,1.7,0.8,1.5*32
$GPZDA,173949.00,16,12,2018,00,00*68
$GPGGA,173949,5002.8315,N,01953.2870,E,1,15,0.68,200.37,M,41.969,M,,*47
$GPRMC,173949,A,5002.8315,N,01953.2870,E,0.0297,287.304,161218,,*2C
$GPGSA,A,3,12,13,15,17,19,20,24,28,69,70,78,79,81,87,88,,,,,,,,,,,,,,,,,,,,,,,,,,,,,,,,,,,,1.4,0.7,1.3*38
$GPGBS,173949,10.42,M,12.08,M,29.21,M*0B
$GPZDA,173950.00,16,12,2018,00,00*60
$GPGGA,173950,5002.8315,N,01953.2870,E,1,13,0.68,200.20,M,41.969,M,,*4F
$GPRMC,173950,A,5002.8315,N,01953.2870,E,0.1978,187.231,161218,,*2B
$GPGSA,A,3,12,13,15,17,19,20,24,28,69,70,78,79,81,87,88,,,,,,,,,,,,,,,,,,,,,,,,,,,,,,,,,,,,1.4,0.7,1.3*38
$GPZDA,173951.00,16,12,2018,00,00*61
$GPGGA,173951,5002.8315,N,01953.2870,E,1,14,0.79,200.14,M,41.969,M,,*4E
$GPRMC,173951,A,5002.8315,N,01953.2870,E,0.1511,219.666,161218,,*2B
$GPGSA,A,3,12,13,15,17,19,20,24,28,69,70,78,79,81,87,88,,,,,,,,,,,,,,,,,,,,,,,,,,,,,,,,,,,,1.7,0.8,1.5*32
$GPGBS,173951,10.42,M,12.08,M,35.42,M*0A
$GPZDA,173952.00,16,12,2018,00,00*62
$GPGGA,173952,5002.8315,N,01953.2870,E,1,14,0.72,200.18,M,41.969,M,,*4A
$GPRMC,173952,A,5002.8315,N,01953.2870,E,0.0603,74.024,161218,,*10
$GPGSA,A,3,12,13,15,17,19,20,24,28,69,70,78,79,81,87,88,,,,,,,,,,,,,,,,,,,,,,,,,,,,,,,,,,,,1.5,0.7,1.3*39
$GPZDA,173953.00,16,12,2018,00,00*63
$GPGGA,173953,5002.8315,N,01953.2870,E,1,13,0.72,200.08,M,41.969,M,,*4D
$GPRMC,173953,A,5002.8315,N,01953.2870,E,0.0731,226.801,161218,,*2B
$GPGSA,A,3,12,13,15,17,19,20,24,28,69,70,78,79,81,87,88,,,,,,,,,,,,,,,,,,,,,,,,,,,,,,,,,,,,1.5,0.7,1.3*39
$GPGBS,173953,10.42,M,12.08,M,29.90,M*0A
$GPZDA,173954.00,16,12,2018,00,00*64
$GPGGA,173954,5002.8315,N,01953.2870,E,1,14,0.79,200.11,M,41.969,M,,*4E
$GPRMC,173954,A,5002.8315,N,01953.2870,E,0.0181,348.884,161218,,*25
$GPGSA,A,3,12,13,15,17,19,20,24,28,69,70,78,79,81,87,88,,,,,,,,,,,,,,,,,,,,,,,,,,,,,,,,,,,,1.7,0.8,1.5*32
$GPZDA,173955.00,16,12,2018,00,00*65
$GPGGA,173955,5002.8316,N,01953.2870,E,1,14,0.72,200.25,M,41.969,M,,*40
$GPRMC,173955,A,5002.8316,N,01953.2870,E,0.0875,196.536,161218,,*20
$GPGSA,A,3,12,13,15,17,19,20,24,28,69,70,78,79,81,87,88,,,,,,,,,,,,,,,,,,,,,,,,,,,,,,,,,,,,1.5,0.7,1.3*39
$GPGBS,173955,10.42,M,12.08,M,29.90,M*0C
$GPZDA,173956.00,16,12,2018,00,00*66
$GPGGA,173956,5002.8316,N,01953.2871,E,1,14,0.72,200.01,M,41.969,M,,*44
$GPRMC,173956,A,5002.8316,N,01953.2871,E,0.0763,353.569,161218,,*2B
$GPGSA,A,3,12,13,15,17,19,20,24,28,69,70,78,79,81,87,88,,,,,,,,,,,,,,,,,,,,,,,,,,,,,,,,,,,,1.5,0.7,1.3*39
$GPGSV,4,1,16,10,14,316,19,12,23,235,27,13,40,168,23,15,56,223,23*7D
$GPGSV,4,2,16,17,48,089,26,19,42,133,33,20,13,288,23,24,57,292,30*75
$GPGSV,4,3,16,28,27,057,18,69,44,256,24,70,25,327,27,78,51,058,23*71
$GPGSV,4,4,16,79,60,303,23,81,15,140,14,87,27,036,27,88,36,092,18*77
$GPZDA,173957.00,16,12,2018,00,00*67
$GPGGA,173957,5002.8317,N,01953.2871,E,1,13,0.72,200.03,M,41.969,M,,*41
$GPRMC,173957,A,5002.8317,N,01953.2871,E,0.1973,35.413,161218,,*1A
$GPGSA,A,3,12,13,15,17,19,20,24,69,70,78,79,81,87,88,,,,,,,,,,,,,,,,,,,,,,,,,,,,,,,,,,,,,1.5,0.7,1.3*33
$GPGBS,173957,10.42,M,12.08,M,29.90,M*0E
$GPZDA,173958.00,16,12,2018,00,00*68
$GPGGA,173958,5002.8317,N,01953.2871,E,1,13,0.76,200.11,M,41.969,M,,*49
$GPRMC,173958,A,5002.8317,N,01953.2871,E,0.0722,14.670,161218,,*1A
$GPGSA,A,3,12,13,15,17,19,20,24,69,70,78,79,81,87,88,,,,,,,,,,,,,,,,,,,,,,,,,,,,,,,,,,,,,1.7,0.8,1.5*38
$GPZDA,173959.00,16,12,2018,00,00*69
$GPGGA,173959,5002.8317,N,01953.2872,E,1,12,0.76,200.10,M,41.969,M,,*4B
$GPRMC,173959,A,5002.8317,N,01953.2872,E,0.0447,268.655,161218,,*26
$GPGSA,A,3,12,13,15,17,19,20,24,69,70,78,79,81,87,88,,,,,,,,,,,,,,,,,,,,,,,,,,,,,,,,,,,,,1.7,0.8,1.5*38
$GPGBS,173959,10.42,M,12.08,M,35.42,M*02
$GPZDA,174000.00,16,12,2018,00,00*6B
$GPGGA,174000,5002.8318,N,01953.2872,E,1,14,0.81,200.13,M,41.969,M,,*4B
$GPRMC,174000,A,5002.8318,N,01953.2872,E,0.0585,55.460,161218,,*1C
$GPGSA,A,3,12,13,15,17,19,20,24,69,70,78,79,81,87,88,,,,,,,,,,,,,,,,,,,,,,,,,,,,,,,,,,,,,2.0,0.8,1.9*30
$GPZDA,174001.00,16,12,2018,00,00*6A
$GPGGA,174001,5002.8318,N,01953.2872,E,1,14,0.72,200.16,M,41.969,M,,*43
$GPRMC,174001,A,5002.8318,N,01953.2872,E,0.0347,294.703,161218,,*2C
$GPGSA,A,3,12,13,15,17,19,20,24,69,70,78,79,81,87,88,,,,,,,,,,,,,,,,,,,,,,,,,,,,,,,,,,,,,1.5,0.7,1.3*33
$GPGBS,174001,10.42,M,12.08,M,29.90,M*03
$GPZDA,174002.00,16,12,2018,00,00*69
$GPGGA,174002,5002.8318,N,01953.2872,E,1,14,0.72,200.54,M,41.969,M,,*46
$GPRMC,174002,A,5002.8318,N,01953.2872,E,0.1024,31.344,161218,,*12
$GPGSA,A,3,12,13,15,17,19,20,24,69,70,78,79,81,87,88,,,,,,,,,,,,,,,,,,,,,,,,,,,,,,,,,,,,,1.5,0.7,1.3*33
$GPZDA,174003.00,16,12,2018,00,00*68
$GPGGA,174003,5002.8318,N,01953.2871,E,1,14,0.72,200.64,M,41.969,M,,*47
$GPRMC,174003,A,5002.8318,N,01953.2871,E,0.0385,90.202,161218,,*11
$GPGSA,A,3,12,13,15,17,19,20,24,69,70,78,79,81,87,88,,,,,,,,,,,,,,,,,,,,,,,,,,,,,,,,,,,,,1.5,0.7,1.3*33
$GPGBS,174003,10.42,M,12.08,M,29.90,M*01
$GPZDA,174004.00,16,12,2018,00,00*6F
$GPGGA,174004,5002.8318,N,01953.2871,E,1,14,0.72,200.69,M,41.969,M,,*4D
$GPRMC,174004,A,5002.8318,N,01953.2871,E,0.0159,147.528,161218,,*21
$GPGSA,A,3,12,13,15,17,19,20,24,69,70,78,79,81,87,88,,,,,,,,,,,,,,,,,,,,,,,,,,,,,,,,,,,,,1.5,0.7,1.3*33
$GPZDA,174005.00,16,12,2018,00,00*6E
$GPGGA,174005,5002.8318,N,01953.2871,E,1,14,0.72,200.75,M,41.969,M,,*41
$GPRMC,174005,A,5002.8318,N,01953.2871,E,0.0717,247.212,161218,,*21
$GPGSA,A,3,12,13,15,17,19,20,24,69,70,78,79,81,87,88,,,,,,,,,,,,,,,,,,,,,,,,,,,,,,,,,,,,,1.5,0.7,1.3*33
$GPGBS,174005,10.42,M,12.08,M,29.90,M*07
$GPZDA,174006.00,16,12,2018,00,00*6D
$GPGGA,174006,5002.8318,N,01953.2871,E,1,14,0.72,201.01,M,41.969,M,,*40
$GPRMC,174006,A,5002.8318,N,01953.2871,E,0.0588,58.521,161218,,*1D
$GPGSA,A,3,12,13,15,17,19,20,24,69,70,78,79,81,87,88,,,,,,,,,,,,,,,,,,,,,,,,,,,,,,,,,,,,,1.5,0.7,1.3*33
$GPGSV,4,1,16,10,14,316,19,12,23,235,27,13,40,168,23,15,56,223,25*7B
$GPGSV,4,2,16,17,48,089,24,19,42,133,34,20,13,288,20,24,57,292,29*7B
$GPGSV,4,3,16,28,27,057,10,69,44,256,25,70,25,327,27,78,51,058,25*7E
$GPGSV,4,4,16,79,60,303,25,81,15,140,16,87,27,036,26,88,36,092,18*72
$GPZDA,174007.00,16,12,2018,00,00*6C
$GPGGA,174007,5002.8318,N,01953.2871,E,1,15,0.72,201.09,M,41.969,M,,*48
$GPRMC,174007,A,5002.8318,N,01953.2871,E,0.1461,216.817,161218,,*2B
$GPGSA,A,3,12,13,15,17,19,20,24,69,70,78,79,81,87,88,,,,,,,,,,,,,,,,,,,,,,,,,,,,,,,,,,,,,1.5,0.7,1.3*33
$GPGBS,174007,10.42,M,12.08,M,29.90,M*05
$GPZDA,174008.00,16,12,2018,00,00*63
$GPGGA,174008,5002.8318,N,01953.2870,E,1,15,0.68,201.07,M,41.969,M,,*43
$GPRMC,174008,A,5002.8318,N,01953.2870,E,0.2070,239.818,161218,,*20
$GPGSA,A,3,12,13,15,17,19,20,24,69,70,78,79,81,87,88,,,,,,,,,,,,,,,,,,,,,,,,,,,,,,,,,,,,,1.4,0.7,1.3*32
$GPZDA,174009.00,16,12,2018,00,00*62
$GPGGA,174009,5002.8318,N,01953.2870,E,1,14,0.68,201.10,M,41.969,M,,*45
$GPRMC,174009,A,5002.8318,N,01953.2870,E,0.0757,138.484,161218,,*2A
$GPGSA,A,3,12,13,15,17,19,20,24,69,70,78,79,81,87,88,,,,,,,,,,,,,,,,,,,,,,,,,,,,,,,,,,,,,1.4,0.7,1.3*32
$GPGBS,174009,10.42,M,12.08,M,29.21,M*01
$GPZDA,174010.00,16,12,2018,00,00*6A
$GPGGA,174010,5002.8318,N,01953.2870,E,1,14,0.72,201.21,M,41.969,M,,*44
$GPRMC,174010,A,5002.8318,N,01953.2870,E,0.0666,184.027,161218,,*2B
$GPGSA,A,3,12,13,15,17,19,20,24,69,70,78,79,81,87,88,,,,,,,,,,,,,,,,,,,,,,,,,,,,,,,,,,,,,1.5,0.7,1.3*33
$GPZDA,174011.00,16,12,2018,00,00*6B
$GPGGA,174011,5002.8318,N,01953.2870,E,1,14,0.72,201.28,M,41.969,M,,*4C
$GPRMC,174011,A,5002.8318,N,01953.2870,E,0.0968,95.042,161218,,*19
$GPGSA,A,3,12,13,15,17,19,20,24,69,70,78,79,81,87,88,,,,,,,,,,,,,,,,,,,,,,,,,,,,,,,,,,,,,1.5,0.7,1.3*33
$GPGBS,174011,10.42,M,12.08,M,29.90,M*02
$GPZDA,174012.00,16,12,2018,00,00*68
$GPGGA,174012,5002.8318,N,01953.2870,E,1,14,0.72,201.32,M,41.969,M,,*44
$GPRMC,174012,A,5002.8318,N,01953.2870,E,0.0894,219.120,161218,,*2B
$GPGSA,A,3,12,13,15,17,19,20,24,69,70,78,79,81,87,88,,,,,,,,,,,,,,,,,,,,,,,,,,,,,,,,,,,,,1.5,0.7,1.3*33
$GPZDA,174013.00,16,12,2018,00,00*69
$GPGGA,174013,5002.8318,N,01953.2870,E,1,14,0.72,201.27,M,41.969,M,,*41
$GPRMC,174013,A,5002.8318,N,01953.2870,E,0.1285,33.626,161218,,*1A
$GPGSA,A,3,12,13,15,17,19,20,24,69,70,78,79,81,87,88,,,,,,,,,,,,,,,,,,,,,,,,,,,,,,,,,,,,,1.5,0.7,1.3*33
$GPGBS,174013,10.42,M,12.08,M,29.90,M*00
$GPZDA,174014.00,16,12,2018,00,00*6E
$GPGGA,174014,5002.8318,N,01953.2870,E,1,14,0.72,201.36,M,41.969,M,,*46
$GPRMC,174014,A,5002.8318,N,01953.2870,E,0.0801,224.763,161218,,*2E
$GPGSA,A,3,12,13,15,17,19,20,24,69,70,78,79,81,87,88,,,,,,,,,,,,,,,,,,,,,,,,,,,,,,,,,,,,,1.5,0.7,1.3*33
$GPZDA,174015.00,16,12,2018,00,00*6F
$GPGGA,174015,5002.8318,N,01953.2869,E,1,14,0.72,201.29,M,41.969,M,,*41
$GPRMC,174015,A,5002.8318,N,01953.2869,E,0.0134,119.494,161218,,*2E
$GPGSA,A,3,12,13,15,17,19,20,24,69,70,78,79,81,87,88,,,,,,,,,,,,,,,,,,,,,,,,,,,,,,,,,,,,,1.5,0.7,1.3*33
$GPGBS,174015,10.42,M,12.08,M,29.90,M*06
$GPZDA,174016.00,16,12,2018,00,00*6C
$GPGGA,174016,5002.8318,N,01953.2869,E,1,14,0.72,201.17,M,41.969,M,,*4F
$GPRMC,174016,A,5002.8318,N,01953.2869,E,0.1219,201.528,161218,,*2C
$GPGSA,A,3,12,13,15,17,19,20,24,69,70,78,79,81,87,88,,,,,,,,,,,,,,,,,,,,,,,,,,,,,,,,,,,,,1.5,0.7,1.3*33
$GPGSV,4,1,16,10,14,316,20,12,23,235,26,13,40,168,23,15,56,223,27*72
$GPGSV,4,2,16,17,48,089,27,19,42,133,34,20,13,288,19,24,57,292,29*72
$GPGSV,4,3,16,68,17,205,17,69,44,256,25,70,26,326,27,78,50,059,26*7A
$GPGSV,4,4,16,79,60,303,25,81,15,140,11,87,27,036,26,88,36,092,18*75
$GPZDA,174017.00,16,12,2018,00,00*6D
$GPGGA,174017,5002.8318,N,01953.2869,E,1,14,0.72,201.04,M,41.969,M,,*4C
$GPRMC,174017,A,5002.8318,N,01953.2869,E,0.1556,10.369,161218,,*10
$GPGSA,A,3,12,13,15,17,19,20,24,69,70,78,79,81,87,88,,,,,,,,,,,,,,,,,,,,,,,,,,,,,,,,,,,,,1.5,0.7,1.3*33
$GPGBS,174017,10.42,M,12.08,M,29.90,M*04
$GPZDA,174018.00,16,12,2018,00,00*62
$GPGGA,174018,5002.8319,N,01953.2868,E,1,14,0.72,201.22,M,41.969,M,,*47
$GPRMC,174018,A,5002.8319,N,01953.2868,E,0.1878,37.653,161218,,*17
$GPGSA,A,3,12,13,15,17,19,20,24,69,70,78,79,81,87,88,,,,,,,,,,,,,,,,,,,,,,,,,,,,,,,,,,,,,1.5,0.7,1.3*33
$GPZDA,174019.00,16,12,2018,00,00*63
$GPGGA,174019,5002.8319,N,01953.2868,E,1,14,0.72,201.16,M,41.969,M,,*41
$GPRMC,174019,A,5002.8319,N,01953.2868,E,0.1119,328.815,161218,,*29
$GPGSA,A,3,12,13,15,17,19,20,24,69,70,78,79,81,87,88,,,,,,,,,,,,,,,,,,,,,,,,,,,,,,,,,,,,,1.5,0.7,1.3*33
$GPGBS,174019,10.42,M,12.08,M,29.90,M*0A
$GPZDA,174020.00,16,12,2018,00,00*69
$GPGGA,174020,5002.8319,N,01953.2867,E,1,16,0.72,201.22,M,41.969,M,,*41
$GPRMC,174020,A,5002.8319,N,01953.2867,E,0.1171,218.416,161218,,*2F
$GPGSA,A,3,12,13,15,17,19,20,24,69,70,78,79,81,87,88,,,,,,,,,,,,,,,,,,,,,,,,,,,,,,,,,,,,,1.5,0.7,1.3*33
$GPZDA,174021.00,16,12,2018,00,00*68
$GPGGA,174021,5002.8319,N,01953.2867,E,1,15,0.64,201.32,M,41.969,M,,*45
$GPRMC,174021,A,5002.8319,N,01953.2867,E,0.1201,94.404,161218,,*1F
$GPGSA,A,3,12,13,15,17,19,20,24,69,70,78,79,81,87,88,,,,,,,,,,,,,,,,,,,,,,,,,,,,,,,,,,,,,1.4,0.6,1.2*32
$GPGBS,174021,10.42,M,12.08,M,27.60,M*00
$GPZDA,174022.00,16,12,2018,00,00*6B
$GPGGA,174022,5002.8319,N,01953.2866,E,1,15,0.68,201.21,M,41.969,M,,*49
$GPRMC,174022,A,5002.8319,N,01953.2866,E,0.1435,264.127,161218,,*25
$GPGSA,A,3,12,13,15,17,19,20,24,69,70,78,79,81,87,88,,,,,,,,,,,,,,,,,,,,,,,,,,,,,,,,,,,,,1.4,0.7,1.2*33
$GPZDA,174023.00,16,12,2018,00,00*6A
$GPGGA,174023,5002.8319,N,01953.2866,E,1,15,0.68,201.14,M,41.969,M,,*4E
$GPRMC,174023,A,5002.8319,N,01953.2866,E,0.0519,7.322,161218,,*2A
$GPGSA,A,3,12,13,15,17,19,20,24,69,70,78,79,81,87,88,,,,,,,,,,,,,,,,,,,,,,,,,,,,,,,,,,,,,1.4,0.7,1.2*33
$GPGBS,174023,10.42,M,12.08,M,28.52,M*0C
$GPZDA,174024.00,16,12,2018,00,00*6D
$GPGGA,174024,5002.8319,N,01953.2866,E,1,15,0.68,201.06,M,41.969,M,,*4A
$GPRMC,174024,A,5002.8319,N,01953.2866,E,0.0273,194.014,161218,,*2B
$GPGSA,A,3,12,13,15,17,19,20,24,69,70,78,79,81,87,88,,,,,,,,,,,,,,,,,,,,,,,,,,,,,,,,,,,,,1.4,0.7,1.2*33
$GPZDA,174025.00,16,12,2018,00,00*6C
$GPGGA,174025,5002.8319,N,01953.2866,E,1,15,0.68,201.16,M,41.969,M,,*4A
$GPRMC,174025,A,5002.8319,N,01953.2866,E,0.0751,76.784,161218,,*1C
$GPGSA,A,3,12,13,15,17,19,20,24,69,70,78,79,81,87,88,,,,,,,,,,,,,,,,,,,,,,,,,,,,,,,,,,,,,1.4,0.7,1.2*33
$GPGBS,174025,10.42,M,12.08,M,28.52,M*0A
$GPZDA,174026.00,16,12,2018,00,00*6F
$GPGGA,174026,5002.8319,N,01953.2866,E,1,15,0.68,200.83,M,41.969,M,,*44
$GPRMC,174026,A,5002.8319,N,01953.2866,E,0.0737,174.850,161218,,*2A
$GPGSA,A,3,12,13,15,17,19,20,24,69,70,78,79,81,87,88,,,,,,,,,,,,,,,,,,,,,,,,,,,,,,,,,,,,,1.4,0.7,1.2*33
$GPGSV,5,1,20,10,14,316,19,11,04,025,07,12,23,235,25,13,40,168,23*7A
$GPGSV,5,2,20,15,56,223,28,17,48,089,22,18,02,012,08,19,42,133,34*71
$GPGSV,5,3,20,20,13,288,20,24,57,292,30,28,27,057,12,30,01,104,08*72
$GPGSV,5,4,20,68,17,205,17,69,44,256,27,70,26,326,28,78,50,059,26*74
$GPGSV,5,5,20,79,61,304,25,81,15,140,13,87,27,036,27,88,36,092,18*75
$GPZDA,174027.00,16,12,2018,00,00*6E
$GPGGA,174027,5002.8319,N,01953.2866,E,1,16,0.68,200.68,M,41.969,M,,*43
$GPRMC,174027,A,5002.8319,N,01953.2866,E,0.1430,169.978,161218,,*29
$GPGSA,A,3,12,13,15,17,19,20,24,68,69,70,78,79,81,87,88,,,,,,,,,,,,,,,,,,,,,,,,,,,,,,,,,,,,1.4,0.7,1.2*3D
$GPGBS,174027,10.42,M,12.08,M,28.52,M*08
$GPZDA,174028.00,16,12,2018,00,00*61
$GPGGA,174028,5002.8319,N,01953.2865,E,1,16,0.64,200.49,M,41.969,M,,*40
$GPRMC,174028,A,5002.8319,N,01953.2865,E,0.0916,316.195,161218,,*2C
$GPGSA,A,3,12,13,15,17,19,20,24,68,69,70,78,79,81,87,88,,,,,,,,,,,,,,,,,,,,,,,,,,,,,,,,,,,,1.4,0.6,1.2*3C
$GPZDA,174029.00,16,12,2018,00,00*60
$GPGGA,174029,5002.8318,N,01953.2865,E,1,15,0.64,200.01,M,41.969,M,,*4F
$GPRMC,174029,A,5002.8318,N,01953.2865,E,0.1165,190.772,161218,,*22
$GPGSA,A,3,12,13,15,17,19,20,24,68,69,70,78,79,81,87,88,,,,,,,,,,,,,,,,,,,,,,,,,,,,,,,,,,,,1.4,0.6,1.2*3C
$GPGBS,174029,10.42,M,12.08,M,27.60,M*08
$GPZDA,174030.00,16,12,2018,00,00*68
$GPGGA,174030,5002.8318,N,01953.2865,E,1,15,0.68,199.72,M,41.969,M,,*4C
$GPRMC,174030,A,5002.8318,N,01953.2865,E,0.0835,176.789,161218,,*2B
$GPGSA,A,3,12,13,15,17,19,20,24,68,69,70,78,79,81,87,88,,,,,,,,,,,,,,,,,,,,,,,,,,,,,,,,,,,,1.4,0.7,1.2*3D
$GPZDA,174031.00,16,12,2018,00,00*69
$GPGGA,174031,5002.8319,N,01953.2865,E,1,15,0.68,199.61,M,41.969,M,,*4E
$GPRMC,174031,A,5002.8319,N,01953.2865,E,0.0940,187.130,161218,,*22
$GPGSA,A,3,12,13,15,17,19,20,24,68,69,70,78,79,81,87,88,,,,,,,,,,,,,,,,,,,,,,,,,,,,,,,,,,,,1.4,0.7,1.2*3D
$GPGBS,174031,10.42,M,12.08,M,28.52,M*0F
$GPZDA,174032.00,16,12,2018,00,00*6A
$GPGGA,174032,5002.8319,N,01953.2866,E,1,15,0.68,199.57,M,41.969,M,,*4B
$GPRMC,174032,A,5002.8319,N,01953.2866,E,0.0823,342.393,161218,,*26
$GPGSA,A,3,12,13,15,17,19,20,24,68,69,70,78,79,81,87,88,,,,,,,,,,,,,,,,,,,,,,,,,,,,,,,,,,,,1.4,0.7,1.2*3D
$GPZDA,174033.00,16,12,2018,00,00*6B
$GPGGA,174033,5002.8318,N,01953.2866,E,1,16,0.68,199.12,M,41.969,M,,*49
$GPRMC,174033,A,5002.8318,N,01953.2866,E,0.0429,175.327,161218,,*29
$GPGSA,A,3,12,13,15,17,19,20,24,68,69,70,78,79,81,87,88,,,,,,,,,,,,,,,,,,,,,,,,,,,,,,,,,,,,1.4,0.7,1.2*3D
$GPGBS,174033,10.42,M,12.08,M,28.52,M*0D
$GPZDA,174034.00,16,12,2018,00,00*6C
$GPGGA,174034,5002.8318,N,01953.2866,E,1,16,0.64,198.97,M,41.969,M,,*4E
$GPRMC,174034,A,5002.8318,N,01953.2866,E,0.0350,262.067,161218,,*25
$GPGSA,A,3,12,13,15,17,19,20,24,68,69,70,78,79,81,87,88,,,,,,,,,,,,,,,,,,,,,,,,,,,,,,,,,,,,1.4,0.6,1.2*3C
$GPZDA,174035.00,16,12,2018,00,00*6D
$GPGGA,174035,5002.8319,N,01953.2867,E,1,15,0.64,198.90,M,41.969,M,,*4B
$GPRMC,174035,A,5002.8319,N,01953.2867,E,0.1948,43.703,161218,,*12
$GPGSA,A,3,12,13,15,17,19,20,24,68,69,70,78,79,81,87,88,,,,,,,,,,,,,,,,,,,,,,,,,,,,,,,,,,,,1.4,0.6,1.2*3C
$GPGBS,174035,10.42,M,12.08,M,27.60,M*05
$GPZDA,174036.00,16,12,2018,00,00*6E
$GPGGA,174036,5002.8320,N,01953.2868,E,1,16,0.68,199.14,M,41.969,M,,*4F
$GPRMC,174036,A,5002.8320,N,01953.2868,E,0.2636,42.406,161218,,*16
$GPGSA,A,3,12,13,15,17,19,20,24,68,69,70,78,79,81,87,88,,,,,,,,,,,,,,,,,,,,,,,,,,,,,,,,,,,,1.4,0.7,1.2*3D
$GPGSV,5,1,17,10,14,315,17,12,23,235,24,13,40,168,22,15,56,223,27*76
$GPGSV,5,2,17,17,48,089,22,19,42,133,33,20,13,288,21,24,57,292,28*7A
$GPGSV,5,3,17,28,27,057,11,68,17,205,10,69,44,256,26,70,26,326,28*7E
$GPGSV,5,4,17,78,50,059,25,79,61,304,25,81,15,140,14,87,27,036,26*70
$GPGSV,5,5,17,88,36,092,16*46
$GPZDA,174037.00,16,12,2018,00,00*6F
$GPGGA,174037,5002.8320,N,01953.2868,E,1,15,0.64,198.84,M,41.969,M,,*49
$GPRMC,174037,A,5002.8320,N,01953.2868,E,0.0523,280.917,161218,,*23
$GPGSA,A,3,12,13,15,17,19,20,24,28,68,69,70,78,79,81,87,88,,,,,,,,,,,,,,,,,,,,,,,,,,,,,,,,,,,1.4,0.6,1.2*36
$GPGBS,174037,10.42,M,12.08,M,27.60,M*07
$GPZDA,174038.00,16,12,2018,00,00*60
$GPGGA,174038,5002.8320,N,01953.2869,E,1,15,0.68,198.79,M,41.969,M,,*49
$GPRMC,174038,A,5002.8320,N,01953.2869,E,0.0518,243.389,161218,,*27
$GPGSA,A,3,12,13,15,17,19,20,24,28,68,69,70,78,79,81,87,88,,,,,,,,,,,,,,,,,,,,,,,,,,,,,,,,,,,1.4,0.7,1.3*36
$GPZDA,174039.00,16,12,2018,00,00*61
$GPGGA,174039,5002.8321,N,01953.2869,E,1,15,0.68,199.16,M,41.969,M,,*41
$GPRMC,174039,A,5002.8321,N,01953.2869,E,0.0821,162.069,161218,,*2D
$GPGSA,A,3,12,13,15,17,19,20,24,28,68,69,70,78,79,81,87,88,,,,,,,,,,,,,,,,,,,,,,,,,,,,,,,,,,,1.4,0.7,1.2*37
$GPGBS,174039,10.42,M,12.08,M,28.52,M*07
$GPZDA,174040.00,16,12,2018,00,00*6F
$GPGGA,174040,5002.8322,N,01953.2870,E,1,15,0.68,199.39,M,41.969,M,,*49
$GPRMC,174040,A,5002.8322,N,01953.2870,E,0.0653,358.631,161218,,*23
$GPGSA,A,3,12,13,15,17,19,20,24,28,68,69,70,78,79,81,87,88,,,,,,,,,,,,,,,,,,,,,,,,,,,,,,,,,,,1.4,0.7,1.2*37
$GPZDA,174041.00,16,12,2018,00,00*6E
$GPGGA,174041,5002.8322,N,01953.2870,E,1,15,0.68,199.50,M,41.969,M,,*47
$GPRMC,174041,A,5002.8322,N,01953.2870,E,0.0946,140.736,161218,,*24
$GPGSA,A,3,12,13,15,17,19,20,24,28,68,69,70,78,79,81,87,88,,,,,,,,,,,,,,,,,,,,,,,,,,,,,,,,,,,1.4,0.7,1.2*37
$GPGBS,174041,10.42,M,12.08,M,28.52,M*08
$GPZDA,174042.00,16,12,2018,00,00*6D
$GPGGA,174042,5002.8322,N,01953.2871,E,1,15,0.68,199.74,M,41.969,M,,*43
$GPRMC,174042,A,5002.8322,N,01953.2871,E,0.0204,40.396,161218,,*14
$GPGSA,A,3,12,13,15,17,19,20,24,28,68,69,70,78,79,81,87,88,,,,,,,,,,,,,,,,,,,,,,,,,,,,,,,,,,,1.4,0.7,1.2*37
$GPZDA,174043.00,16,12,2018,00,00*6C
$GPGGA,174043,5002.8322,N,01953.2871,E,1,14,0.68,199.95,M,41.969,M,,*4C
$GPRMC,174043,A,5002.8322,N,01953.2871,E,0.0421,6.894,161218,,*2F
$GPGSA,A,3,12,13,15,17,19,20,24,28,68,69,70,78,79,81,87,88,,,,,,,,,,,,,,,,,,,,,,,,,,,,,,,,,,,1.4,0.7,1.2*37
$GPGBS,174043,10.42,M,12.08,M,28.52,M*0A
$GPZDA,174044.00,16,12,2018,00,00*6B
$GPGGA,174044,5002.8323,N,01953.2872,E,1,14,0.72,200.27,M,41.969,M,,*48
$GPRMC,174044,A,5002.8323,N,01953.2872,E,0.1632,41.501,161218,,*19
$GPGSA,A,3,12,13,15,17,19,20,24,28,68,69,70,78,79,81,87,88,,,,,,,,,,,,,,,,,,,,,,,,,,,,,,,,,,,1.5,0.7,1.3*37
$GPZDA,174045.00,16,12,2018,00,00*6A
$GPGGA,174045,5002.8323,N,01953.2872,E,1,14,0.72,200.71,M,41.969,M,,*4A
$GPRMC,174045,A,5002.8323,N,01953.2872,E,0.0953,17.322,161218,,*15
$GPGSA,A,3,12,13,15,17,19,20,24,28,68,69,70,78,79,81,87,88,,,,,,,,,,,,,,,,,,,,,,,,,,,,,,,,,,,1.5,0.7,1.3*37
$GPGBS,174045,10.42,M,12.08,M,29.90,M*03
$GPZDA,174046.00,16,12,2018,00,00*69
$GPGGA,174046,5002.8324,N,01953.2872,E,1,14,0.72,201.09,M,41.969,M,,*40
$GPRMC,174046,A,5002.8324,N,01953.2872,E,0.1947,57.658,161218,,*19
$GPGSA,A,3,12,13,15,17,19,20,24,28,68,69,70,78,79,81,87,88,,,,,,,,,,,,,,,,,,,,,,,,,,,,,,,,,,,1.5,0.7,1.3*37
$GPGSV,4,1,15,12,24,235,26,13,39,168,22,15,55,222,26,17,48,088,25*75
$GPGSV,4,2,15,19,43,133,32,20,13,288,19,24,57,292,28,69,44,256,25*70
$GPGSV,4,3,15,70,26,326,28,78,50,059,25,79,61,304,26,80,13,273,17*75
$GPGSV,4,4,15,81,15,140,13,87,27,036,28,88,36,092,19*44
$GPZDA,174047.00,16,12,2018,00,00*68
$GPGGA,174047,5002.8324,N,01953.2873,E,1,14,0.72,201.20,M,41.969,M,,*4B
$GPRMC,174047,A,5002.8324,N,01953.2873,E,0.0559,216.248,161218,,*29
$GPGSA,A,3,12,13,15,17,19,20,24,69,70,78,79,81,87,88,,,,,,,,,,,,,,,,,,,,,,,,,,,,,,,,,,,,,1.5,0.7,1.3*33
$GPGBS,174047,10.42,M,12.08,M,30.13,M*02
$GPZDA,174048.00,16,12,2018,00,00*67
$GPGGA,174048,5002.8324,N,01953.2872,E,1,14,0.72,201.64,M,41.969,M,,*45
$GPRMC,174048,A,5002.8324,N,01953.2872,E,0.0983,313.575,161218,,*21
$GPGSA,A,3,12,13,15,17,19,20,24,69,70,78,79,81,87,88,,,,,,,,,,,,,,,,,,,,,,,,,,,,,,,,,,,,,1.5,0.7,1.3*33
$GPZDA,174049.00,16,12,2018,00,00*66
$GPGGA,174049,5002.8324,N,01953.2872,E,1,14,0.72,201.87,M,41.969,M,,*49
$GPRMC,174049,A,5002.8324,N,01953.2872,E,0.0631,136.389,161218,,*26
$GPGSA,A,3,12,13,15,17,19,20,24,69,70,78,79,81,87,88,,,,,,,,,,,,,,,,,,,,,,,,,,,,,,,,,,,,,1.5,0.7,1.3*33
$GPGBS,174049,10.42,M,12.08,M,30.13,M*0C
$GPZDA,174050.00,16,12,2018,00,00*6E
$GPGGA,174050,5002.8324,N,01953.2872,E,1,13,0.72,202.10,M,41.969,M,,*4B
$GPRMC,174050,A,5002.8324,N,01953.2872,E,0.0402,94.227,161218,,*10
$GPGSA,A,3,12,13,15,17,19,20,24,69,70,78,79,81,87,88,,,,,,,,,,,,,,,,,,,,,,,,,,,,,,,,,,,,,1.5,0.7,1.3*33
$GPZDA,174051.00,16,12,2018,00,00*6F
$GPGGA,174051,5002.8323,N,01953.2871,E,1,13,0.76,202.19,M,41.969,M,,*43
$GPRMC,174051,A,5002.8323,N,01953.2871,E,0.0930,205.263,161218,,*23
$GPGSA,A,3,12,13,15,17,19,20,24,69,70,78,79,81,87,88,,,,,,,,,,,,,,,,,,,,,,,,,,,,,,,,,,,,,1.5,0.8,1.3*3C
$GPGBS,174051,10.42,M,12.08,M,30.13,M*05
$GPZDA,174052.00,16,12,2018,00,00*6C
$GPGGA,174052,5002.8323,N,01953.2871,E,1,13,0.76,202.22,M,41.969,M,,*48
$GPRMC,174052,A,5002.8323,N,01953.2871,E,0.1082,75.199,161218,,*12
$GPGSA,A,3,12,13,15,17,19,20,24,69,70,78,79,81,87,88,,,,,,,,,,,,,,,,,,,,,,,,,,,,,,,,,,,,,1.5,0.8,1.3*3C
$GPZDA,174053.00,16,12,2018,00,00*6D
$GPGGA,174053,5002.8323,N,01953.2870,E,1,14,0.76,202.28,M,41.969,M,,*45
$GPRMC,174053,A,5002.8323,N,01953.2870,E,0.6011,249.858,161218,,*26
$GPGSA,A,3,12,13,15,17,19,20,24,69,70,78,79,81,87,88,,,,,,,,,,,,,,,,,,,,,,,,,,,,,,,,,,,,,1.5,0.8,1.3*3C
$GPGBS,174053,10.42,M,12.08,M,30.13,M*07
$GPZDA,174054.00,16,12,2018,00,00*6A
$GPGGA,174054,5002.8322,N,01953.2870,E,1,14,0.72,202.42,M,41.969,M,,*4B
$GPRMC,174054,A,5002.8322,N,01953.2870,E,0.2096,132.406,161218,,*23
$GPGSA,A,3,12,13,15,17,19,20,24,69,70,78,79,81,87,88,,,,,,,,,,,,,,,,,,,,,,,,,,,,,,,,,,,,,1.5,0.7,1.3*33
$GPZDA,174055.00,16,12,2018,00,00*6B
$GPGGA,174055,5002.8321,N,01953.2874,E,1,14,0.72,201.78,M,41.969,M,,*47
$GPRMC,174055,A,5002.8321,N,01953.2874,E,0.9981,105.152,161218,,*21
$GPGSA,A,3,12,13,15,17,19,20,24,69,70,78,79,81,87,88,,,,,,,,,,,,,,,,,,,,,,,,,,,,,,,,,,,,,1.5,0.7,1.3*33
$GPGBS,174055,10.42,M,12.08,M,30.13,M*01
$GPZDA,174056.00,16,12,2018,00,00*68
$GPGGA,174056,5002.8319,N,01953.2878,E,1,13,0.72,201.53,M,41.969,M,,*4D
$GPRMC,174056,A,5002.8319,N,01953.2878,E,1.3011,122.004,161218,,*29
$GPGSA,A,3,12,13,15,17,19,20,24,69,70,78,79,81,87,88,,,,,,,,,,,,,,,,,,,,,,,,,,,,,,,,,,,,,1.5,0.7,1.3*33
$GPGSV,5,1,18,01,08,037,21,10,14,315,19,12,24,235,24,13,39,168,30*72
$GPGSV,5,2,18,15,55,222,31,17,48,088,24,19,43,133,25,24,58,292,25*73
$GPGSV,5,3,18,30,00,105,06,68,17,205,21,69,44,256,26,70,26,326,24*73
$GPGSV,5,4,18,78,50,059,19,79,61,304,27,80,13,273,23,81,15,140,21*72
$GPGSV,5,5,18,87,27,036,21,88,36,092,19*7A
$GPZDA,174057.00,16,12,2018,00,00*69
$GPGGA,174057,5002.8320,N,01953.2880,E,1,12,0.76,201.45,M,41.969,M,,*43
$GPRMC,174057,A,5002.8320,N,01953.2880,E,0.6460,37.451,161218,,*12
$GPGSA,A,3,12,13,15,17,19,24,69,70,78,79,81,87,88,,,,,,,,,,,,,,,,,,,,,,,,,,,,,,,,,,,,,,1.7,0.8,1.6*39
$GPGBS,174057,10.42,M,12.08,M,35.65,M*07
$GPZDA,174058.00,16,12,2018,00,00*66
$GPGGA,174058,5002.8320,N,01953.2884,E,1,12,0.77,200.71,M,41.969,M,,*4F
$GPRMC,174058,A,5002.8320,N,01953.2884,E,0.7707,79.770,161218,,*10
$GPGSA,A,3,12,13,15,17,19,24,69,70,78,79,81,87,88,,,,,,,,,,,,,,,,,,,,,,,,,,,,,,,,,,,,,,1.8,0.8,1.6*36
$GPZDA,174059.00,16,12,2018,00,00*67
$GPGGA,174059,5002.8321,N,01953.2885,E,1,12,0.77,199.81,M,41.969,M,,*42
$GPRMC,174059,A,5002.8321,N,01953.2885,E,0.3001,1.046,161218,,*29
$GPGSA,A,3,12,13,15,17,19,24,69,70,78,79,81,87,88,,,,,,,,,,,,,,,,,,,,,,,,,,,,,,,,,,,,,,1.8,0.8,1.6*36
$GPGBS,174059,10.42,M,12.08,M,37.49,M*05
$GPZDA,174100.00,16,12,2018,00,00*6A
$GPGGA,174100,5002.8322,N,01953.2888,E,1,13,0.77,200.17,M,41.969,M,,*4C
$GPRMC,174100,A,5002.8322,N,01953.2888,E,0.6867,42.689,161218,,*15
$GPGSA,A,3,12,13,15,17,19,24,69,70,78,79,81,87,88,,,,,,,,,,,,,,,,,,,,,,,,,,,,,,,,,,,,,,1.7,0.8,1.5*3A
$GPZDA,174101.00,16,12,2018,00,00*6B
$GPGGA,174101,5002.8324,N,01953.2888,E,1,12,0.76,200.15,M,41.969,M,,*49
$GPRMC,174101,A,5002.8324,N,01953.2888,E,0.4705,322.227,161218,,*2E
$GPGSA,A,3,12,13,15,17,19,24,69,70,78,79,81,87,88,,,,,,,,,,,,,,,,,,,,,,,,,,,,,,,,,,,,,,1.6,0.8,1.4*3A
$GPGBS,174101,10.42,M,12.08,M,33.12,M*03
$GPZDA,174102.00,16,12,2018,00,00*68
$GPGGA,174102,5002.8322,N,01953.2892,E,1,13,0.79,200.60,M,41.969,M,,*4B
$GPRMC,174102,A,5002.8322,N,01953.2892,E,1.3907,139.780,161218,,*2A
$GPGSA,A,3,12,13,15,17,19,24,69,70,78,79,81,87,88,,,,,,,,,,,,,,,,,,,,,,,,,,,,,,,,,,,,,,1.8,0.8,1.6*36
$GPZDA,174103.00,16,12,2018,00,00*69
$GPGGA,174103,5002.8321,N,01953.2897,E,1,13,0.75,200.81,M,41.969,M,,*4F
$GPRMC,174103,A,5002.8321,N,01953.2897,E,0.6924,118.276,161218,,*27
$GPGSA,A,3,12,13,15,17,19,24,69,70,78,79,81,87,88,,,,,,,,,,,,,,,,,,,,,,,,,,,,,,,,,,,,,,1.7,0.8,1.5*3A
$GPGBS,174103,10.42,M,12.08,M,34.96,M*0A
$GPZDA,174104.00,16,12,2018,00,00*6E
$GPGGA,174104,5002.8323,N,01953.2900,E,1,14,0.75,200.68,M,41.969,M,,*45
$GPRMC,174104,A,5002.8323,N,01953.2900,E,0.4655,31.535,161218,,*1C
$GPGSA,A,3,12,13,15,17,19,24,69,70,78,79,81,87,88,,,,,,,,,,,,,,,,,,,,,,,,,,,,,,,,,,,,,,1.7,0.8,1.5*3A
$GPZDA,174105.00,16,12,2018,00,00*6F
$GPGGA,174105,5002.8325,N,01953.2904,E,1,13,0.72,200.82,M,41.969,M,,*42
$GPRMC,174105,A,5002.8325,N,01953.2904,E,0.9918,56.771,161218,,*17
$GPGSA,A,3,12,13,15,17,19,24,69,70,78,79,81,87,88,,,,,,,,,,,,,,,,,,,,,,,,,,,,,,,,,,,,,,1.6,0.7,1.4*35
$GPGBS,174105,10.42,M,12.08,M,32.66,M*05
$GPZDA,174106.00,16,12,2018,00,00*6C
$GPGGA,174106,5002.8326,N,01953.2905,E,1,14,0.87,200.83,M,41.969,M,,*4F
$GPRMC,174106,A,5002.8326,N,01953.2905,E,0.2118,333.851,161218,,*28
$GPGSA,A,3,12,13,15,17,19,24,69,70,78,79,81,87,88,,,,,,,,,,,,,,,,,,,,,,,,,,,,,,,,,,,,,,1.8,0.9,1.6*37
$GPGSV,6,1,21,01,08,037,08,10,14,315,17,11,04,025,10,12,24,235,19*76
$GPGSV,6,2,21,13,39,168,23,15,55,222,22,17,48,088,20,18,02,011,10*7C
$GPGSV,6,3,21,19,43,133,20,20,13,288,09,24,58,292,25,28,26,057,11*71
$GPGSV,6,4,21,30,00,105,09,68,17,205,23,69,44,256,31,70,26,326,09*79
$GPGSV,6,5,21,78,50,059,19,79,61,304,21,81,15,140,24,87,27,036,19*73
$GPGSV,6,6,21,88,36,092,22*44
$GPZDA,174107.00,16,12,2018,00,00*6D
$GPGGA,174107,5002.8327,N,01953.2907,E,1,15,0.72,199.53,M,41.969,M,,*48
$GPRMC,174107,A,5002.8327,N,01953.2907,E,0.6427,159.714,161218,,*27
$GPGSA,A,3,12,13,15,17,19,24,68,69,70,78,79,81,87,88,,,,,,,,,,,,,,,,,,,,,,,,,,,,,,,,,,,,,1.6,0.7,1.4*3B
$GPGBS,174107,10.42,M,12.08,M,32.66,M*07
$GPZDA,174108.00,16,12,2018,00,00*62
$GPGGA,174108,5002.8329,N,01953.2913,E,1,15,0.69,200.55,M,41.969,M,,*43
$GPRMC,174108,A,5002.8329,N,01953.2913,E,1.0169,45.725,161218,,*15
$GPGSA,A,3,12,13,15,17,19,24,68,69,70,78,79,81,87,88,,,,,,,,,,,,,,,,,,,,,,,,,,,,,,,,,,,,,1.5,0.7,1.4*38
$GPZDA,174109.00,16,12,2018,00,00*63
$GPGGA,174109,5002.8322,N,01953.2919,E,1,15,0.69,204.20,M,41.969,M,,*45
$GPRMC,174109,A,5002.8322,N,01953.2919,E,1.1107,157.284,161218,,*20
$GPGSA,A,3,12,13,15,17,19,24,68,69,70,78,79,81,87,88,,,,,,,,,,,,,,,,,,,,,,,,,,,,,,,,,,,,,1.5,0.7,1.4*38
$GPGBS,174109,10.42,M,12.08,M,31.51,M*0E
$GPZDA,174110.00,16,12,2018,00,00*6B
$GPGGA,174110,5002.8321,N,01953.2919,E,1,14,0.69,203.66,M,41.969,M,,*4A
$GPRMC,174110,A,5002.8321,N,01953.2919,E,0.1666,195.996,161218,,*2C
$GPGSA,A,3,12,13,15,17,19,24,68,69,70,78,79,81,87,88,,,,,,,,,,,,,,,,,,,,,,,,,,,,,,,,,,,,,1.5,0.7,1.4*38
$GPZDA,174111.00,16,12,2018,00,00*6A
$GPGGA,174111,5002.8323,N,01953.2918,E,1,14,0.72,202.31,M,41.969,M,,*41
$GPRMC,174111,A,5002.8323,N,01953.2918,E,0.2151,33.107,161218,,*13
$GPGSA,A,3,12,13,15,17,19,24,68,69,70,78,79,81,87,88,,,,,,,,,,,,,,,,,,,,,,,,,,,,,,,,,,,,,1.6,0.7,1.4*3B
$GPGBS,174111,10.42,M,12.08,M,32.66,M*00
$GPZDA,174112.00,16,12,2018,00,00*69
$GPGGA,174112,5002.8327,N,01953.2914,E,1,14,0.72,199.09,M,41.969,M,,*40
$GPRMC,174112,A,5002.8327,N,01953.2914,E,0.9156,1.514,161218,,*23
$GPGSA,A,3,12,13,15,17,19,24,68,69,70,78,79,81,87,88,,,,,,,,,,,,,,,,,,,,,,,,,,,,,,,,,,,,,1.6,0.7,1.4*3B
$GPZDA,174113.00,16,12,2018,00,00*68
$GPGGA,174113,5002.8329,N,01953.2913,E,1,14,0.72,198.18,M,41.969,M,,*49
$GPRMC,174113,A,5002.8329,N,01953.2913,E,0.5990,0.452,161218,,*27
$GPGSA,A,3,12,13,15,17,19,24,68,69,70,78,79,81,87,88,,,,,,,,,,,,,,,,,,,,,,,,,,,,,,,,,,,,,1.6,0.7,1.4*3B
$GPGBS,174113,10.42,M,12.08,M,32.66,M*02
$GPZDA,174114.00,16,12,2018,00,00*6F
$GPGGA,174114,5002.8330,N,01953.2918,E,1,14,0.81,198.60,M,41.969,M,,*4E
$GPRMC,174114,A,5002.8330,N,01953.2918,E,1.8843,38.381,161218,,*12
$GPGSA,A,3,12,13,15,17,19,24,68,69,70,78,79,81,87,88,,,,,,,,,,,,,,,,,,,,,,,,,,,,,,,,,,,,,1.7,0.8,1.5*34
$GPZDA,174115.00,16,12,2018,00,00*6E
$GPGGA,174115,5002.8342,N,01953.2929,E,1,10,0.81,193.35,M,41.969,M,,*47
$GPRMC,174115,A,5002.8342,N,01953.2929,E,3.7403,61.597,161218,,*1C
$GPGSA,A,3,12,13,15,17,19,24,68,69,70,78,79,81,87,88,,,,,,,,,,,,,,,,,,,,,,,,,,,,,,,,,,,,,1.7,0.8,1.5*34
$GPGBS,174115,10.42,M,12.08,M,34.73,M*06
$GPZDA,174116.00,16,12,2018,00,00*6D
$GPGGA,174116,5002.8343,N,01953.2932,E,1,11,1.02,191.28,M,41.969,M,,*4A
$GPRMC,174116,A,5002.8343,N,01953.2932,E,0.7539,65.813,161218,,*1A
$GPGSA,A,3,12,13,15,17,19,24,68,69,70,78,79,81,87,88,,,,,,,,,,,,,,,,,,,,,,,,,,,,,,,,,,,,,2.4,1.0,2.2*39
$GPGSV,5,1,17,01,08,037,09,10,14,315,12,12,24,235,15,13,39,168,28*77
$GPGSV,5,2,17,15,55,222,31,17,48,088,31,19,43,133,31,24,58,292,27*7F
$GPGSV,5,3,17,28,26,057,11,68,17,205,24,69,44,256,31,70,26,326,08*7C
$GPGSV,5,4,17,78,50,059,26,79,61,304,34,81,15,140,22,87,27,036,25*75
$GPGSV,5,5,17,88,36,092,17*47
$GPZDA,174117.00,16,12,2018,00,00*6C
$GPGGA,174117,5002.8346,N,01953.2934,E,1,12,1.28,189.51,M,41.969,M,,*44
$GPRMC,174117,A,5002.8346,N,01953.2934,E,1.4850,42.700,161218,,*10
$GPGSA,A,3,13,15,17,19,24,68,69,78,79,81,88,,,,,,,,,,,,,,,,,,,,,,,,,,,,,,,,,,,,,,,,2.8,1.3,2.5*3A
$GPGBS,174117,10.42,M,12.08,M,56.58,M*09
$GPZDA,174118.00,16,12,2018,00,00*63
$GPGGA,174118,5002.8354,N,01953.2933,E,1,13,0.91,185.18,M,41.969,M,,*4C
$GPRMC,174118,A,5002.8354,N,01953.2933,E,2.0099,8.306,161218,,*2D
$GPGSA,A,3,13,15,17,19,24,68,69,78,79,81,88,,,,,,,,,,,,,,,,,,,,,,,,,,,,,,,,,,,,,,,,2.0,0.9,1.8*37
$GPZDA,174119.00,16,12,2018,00,00*62
$GPGGA,174119,5002.8360,N,01953.2933,E,1,12,0.87,182.85,M,41.969,M,,*4F
$GPRMC,174119,A,5002.8360,N,01953.2933,E,1.9887,17.735,161218,,*1C
$GPGSA,A,3,13,15,17,19,24,68,69,78,79,81,88,,,,,,,,,,,,,,,,,,,,,,,,,,,,,,,,,,,,,,,,1.8,0.9,1.6*32
$GPGBS,174119,10.42,M,12.08,M,37.26,M*09
$GPZDA,174120.00,16,12,2018,00,00*68
$GPGGA,174120,5002.8364,N,01953.2932,E,1,12,1.21,177.67,M,41.969,M,,*4B
$GPRMC,174120,A,5002.8364,N,01953.2932,E,0.4818,170.922,161218,,*21
$GPGSA,A,3,13,15,17,19,24,68,69,78,79,81,88,,,,,,,,,,,,,,,,,,,,,,,,,,,,,,,,,,,,,,,,2.5,1.2,2.2*31
$GPZDA,174121.00,16,12,2018,00,00*69
$GPGGA,174121,5002.8358,N,01953.2932,E,1,12,1.21,175.02,M,41.969,M,,*44
$GPRMC,174121,A,5002.8358,N,01953.2932,E,1.0971,194.780,161218,,*28
$GPGSA,A,3,13,15,17,19,24,68,69,78,79,81,88,,,,,,,,,,,,,,,,,,,,,,,,,,,,,,,,,,,,,,,,2.5,1.2,2.2*31
$GPGBS,174121,10.42,M,12.08,M,51.06,M*00
$GPZDA,174122.00,16,12,2018,00,00*6A
$GPGGA,174122,5002.8355,N,01953.2933,E,1,12,1.21,173.24,M,41.969,M,,*49
$GPRMC,174122,A,5002.8355,N,01953.2933,E,0.7302,174.978,161218,,*28
$GPGSA,A,3,13,15,17,19,24,68,69,78,79,81,88,,,,,,,,,,,,,,,,,,,,,,,,,,,,,,,,,,,,,,,,2.5,1.2,2.2*31
$GPZDA,174123.00,16,12,2018,00,00*6B
$GPGGA,174123,5002.8352,N,01953.2934,E,1,12,1.21,172.32,M,41.969,M,,*4E
$GPRMC,174123,A,5002.8352,N,01953.2934,E,0.3420,108.384,161218,,*28
$GPGSA,A,3,13,15,17,19,24,68,69,78,79,81,88,,,,,,,,,,,,,,,,,,,,,,,,,,,,,,,,,,,,,,,,2.5,1.2,2.2*31
$GPGBS,174123,10.42,M,12.08,M,51.06,M*02
$GPZDA,174124.00,16,12,2018,00,00*6C
$GPGGA,174124,5002.8353,N,01953.2933,E,1,12,1.21,170.07,M,41.969,M,,*4B
$GPRMC,174124,A,5002.8353,N,01953.2933,E,0.4253,326.062,161218,,*29
$GPGSA,A,3,13,15,17,19,24,68,69,78,79,81,88,,,,,,,,,,,,,,,,,,,,,,,,,,,,,,,,,,,,,,,,2.5,1.2,2.2*31
$GPZDA,174125.00,16,12,2018,00,00*6D
$GPGGA,174125,5002.8355,N,01953.2929,E,1,12,1.21,167.52,M,41.969,M,,*41
$GPRMC,174125,A,5002.8355,N,01953.2929,E,1.0138,359.374,161218,,*22
$GPGSA,A,3,13,15,17,19,24,68,69,78,79,81,88,,,,,,,,,,,,,,,,,,,,,,,,,,,,,,,,,,,,,,,,2.5,1.2,2.2*31
$GPGBS,174125,10.42,M,12.08,M,51.06,M*04
$GPZDA,174126.00,16,12,2018,00,00*6E
$GPGGA,174126,5002.8360,N,01953.2926,E,1,13,0.89,165.83,M,41.969,M,,*47
$GPRMC,174126,A,5002.8360,N,01953.2926,E,2.5274,325.385,161218,,*20
$GPGSA,A,3,13,15,17,19,24,68,69,78,79,81,88,,,,,,,,,,,,,,,,,,,,,,,,,,,,,,,,,,,,,,,,1.9,0.9,1.6*33
$GPGSV,4,1,16,10,14,315,08,12,24,235,28,13,39,168,34,15,55,222,31*7F
$GPGSV,4,2,16,17,48,088,33,19,43,133,31,20,13,288,08,24,58,292,33*76
$GPGSV,4,3,16,28,26,057,09,68,16,205,31,69,44,255,29,78,50,059,29*7B
$GPGSV,4,4,16,79,61,304,32,81,15,140,17,87,27,036,24,88,36,092,27*7D
$GPZDA,174127.00,16,12,2018,00,00*6F
$GPGGA,174127,5002.8359,N,01953.2925,E,1,12,0.87,161.09,M,41.969,M,,*46
$GPRMC,174127,A,5002.8359,N,01953.2925,E,3.0543,163.395,161218,,*2E
$GPGSA,A,3,12,13,15,17,19,24,68,69,78,79,81,87,88,,,,,,,,,,,,,,,,,,,,,,,,,,,,,,,,,,,,,,1.8,0.9,1.6*3E
$GPGBS,174127,10.42,M,12.08,M,37.26,M*04
$GPZDA,174128.00,16,12,2018,00,00*60
$GPGGA,174128,5002.8353,N,01953.2925,E,1,11,0.89,162.57,M,41.969,M,,*46
$GPRMC,174128,A,5002.8353,N,01953.2925,E,0.5708,4.749,161218,,*25
$GPGSA,A,3,12,13,15,17,19,24,68,69,78,79,81,87,88,,,,,,,,,,,,,,,,,,,,,,,,,,,,,,,,,,,,,,2.0,0.9,1.8*3B
$GPZDA,174129.00,16,12,2018,00,00*61
$GPGGA,174129,5002.8351,N,01953.2925,E,1,11,0.92,162.85,M,41.969,M,,*40
$GPRMC,174129,A,5002.8351,N,01953.2925,E,0.4172,332.246,161218,,*20
$GPGSA,A,3,12,13,15,17,19,24,68,69,78,79,81,87,88,,,,,,,,,,,,,,,,,,,,,,,,,,,,,,,,,,,,,,2.3,0.9,2.1*32
$GPGBS,174129,10.42,M,12.08,M,48.53,M*00
$GPZDA,174130.00,16,12,2018,00,00*69
$GPGGA,174130,5002.8351,N,01953.2924,E,1,11,0.93,163.07,M,41.969,M,,*43
$GPRMC,174130,A,5002.8351,N,01953.2924,E,0.5194,8.326,161218,,*2D
$GPGSA,A,3,12,13,15,17,19,24,68,69,78,79,81,87,88,,,,,,,,,,,,,,,,,,,,,,,,,,,,,,,,,,,,,,2.0,0.9,1.8*3B
$GPZDA,174131.00,16,12,2018,00,00*68
$GPGGA,174131,5002.8347,N,01953.2924,E,1,11,0.93,166.13,M,41.969,M,,*45
$GPRMC,174131,A,5002.8347,N,01953.2924,E,0.3129,333.991,161218,,*26
$GPGSA,A,3,12,13,15,17,19,24,68,69,78,79,81,87,88,,,,,,,,,,,,,,,,,,,,,,,,,,,,,,,,,,,,,,2.0,0.9,1.8*3B
$GPGBS,174131,10.42,M,12.08,M,40.25,M*00
$GPZDA,174132.00,16,12,2018,00,00*6B
$GPGGA,174132,5002.8343,N,01953.2925,E,1,12,0.92,168.22,M,41.969,M,,*4D
$GPRMC,174132,A,5002.8343,N,01953.2925,E,0.6409,126.245,161218,,*26
$GPGSA,A,3,12,13,15,17,19,24,68,69,78,79,81,87,88,,,,,,,,,,,,,,,,,,,,,,,,,,,,,,,,,,,,,,2.3,0.9,2.1*32
$GPZDA,174133.00,16,12,2018,00,00*6A
$GPGGA,174133,5002.8340,N,01953.2925,E,1,14,0.89,169.76,M,41.969,M,,*43
$GPRMC,174133,A,5002.8340,N,01953.2925,E,0.0541,208.756,161218,,*27
$GPGSA,A,3,12,13,15,17,19,24,68,69,78,79,81,87,88,,,,,,,,,,,,,,,,,,,,,,,,,,,,,,,,,,,,,,2.1,0.9,1.9*3B
$GPGBS,174133,10.42,M,12.08,M,44.16,M*06
$GPZDA,174134.00,16,12,2018,00,00*6D
$GPGGA,174134,5002.8338,N,01953.2924,E,1,14,0.73,170.18,M,41.969,M,,*4F
$GPRMC,174134,A,5002.8338,N,01953.2924,E,0.3842,220.300,161218,,*2E
$GPGSA,A,3,12,13,15,17,19,24,68,69,78,79,81,87,88,,,,,,,,,,,,,,,,,,,,,,,,,,,,,,,,,,,,,,1.6,0.7,1.5*3D
$GPZDA,174135.00,16,12,2018,00,00*6C
$GPGGA,174135,5002.8336,N,01953.2922,E,1,13,0.73,171.35,M,41.969,M,,*4F
$GPRMC,174135,A,5002.8336,N,01953.2922,E,0.3036,212.984,161218,,*2B
$GPGSA,A,3,12,13,15,17,19,24,68,69,78,79,81,87,88,,,,,,,,,,,,,,,,,,,,,,,,,,,,,,,,,,,,,,1.6,0.7,1.5*3D
$GPGBS,174135,10.42,M,12.08,M,34.04,M*04
$GPZDA,174136.00,16,12,2018,00,00*6F
$GPGGA,174136,5002.8334,N,01953.2920,E,1,13,0.76,172.22,M,41.969,M,,*4C
$GPRMC,174136,A,5002.8334,N,01953.2920,E,0.3261,207.715,161218,,*2A
$GPGSA,A,3,12,13,15,17,19,24,68,69,78,79,81,87,88,,,,,,,,,,,,,,,,,,,,,,,,,,,,,,,,,,,,,,1.7,0.8,1.6*30
$GPGSV,4,1,15,12,24,235,13,13,39,168,27,15,55,222,32,17,48,088,32*75
$GPGSV,4,2,15,19,43,133,31,20,13,288,10,24,58,292,35,28,26,057,22*7C
$GPGSV,4,3,15,68,16,205,18,69,44,255,33,70,26,326,22,78,50,059,32*73
$GPGSV,4,4,15,79,61,306,35,87,27,035,30,88,36,092,30*45
$GPZDA,174137.00,16,12,2018,00,00*6E
$GPGGA,174137,5002.8334,N,01953.2917,E,1,13,0.76,172.39,M,41.969,M,,*43
$GPRMC,174137,A,5002.8334,N,01953.2917,E,0.1739,191.212,161218,,*2B
$GPGSA,A,3,13,15,17,19,24,28,68,69,70,78,79,87,88,,,,,,,,,,,,,,,,,,,,,,,,,,,,,,,,,,,,,,1.7,0.8,1.6*37
$GPGBS,174137,10.42,M,12.08,M,36.11,M*00
$GPZDA,174138.00,16,12,2018,00,00*61
$GPGGA,174138,5002.8333,N,01953.2915,E,1,12,0.76,172.82,M,41.969,M,,*48
$GPRMC,174138,A,5002.8333,N,01953.2915,E,0.0366,214.251,161218,,*27
$GPGSA,A,3,13,15,17,19,24,28,68,69,70,78,79,87,88,,,,,,,,,,,,,,,,,,,,,,,,,,,,,,,,,,,,,,1.7,0.8,1.6*37
$GPZDA,174139.00,16,12,2018,00,00*60
$GPGGA,174139,5002.8333,N,01953.2913,E,1,13,0.89,172.65,M,41.969,M,,*47
$GPRMC,174139,A,5002.8333,N,01953.2913,E,0.1116,243.994,161218,,*24
$GPGSA,A,3,13,15,17,19,24,28,68,69,70,78,79,87,88,,,,,,,,,,,,,,,,,,,,,,,,,,,,,,,,,,,,,,2.0,0.9,1.8*3C
$GPGBS,174139,10.42,M,12.08,M,40.25,M*08
$GPZDA,174140.00,16,12,2018,00,00*6E
$GPGGA,174140,5002.8333,N,01953.2912,E,1,12,0.76,172.77,M,41.969,M,,*4A
$GPRMC,174140,A,5002.8333,N,01953.2912,E,0.0712,261.370,161218,,*28
$GPGSA,A,3,13,15,17,19,24,28,68,69,70,78,79,87,88,,,,,,,,,,,,,,,,,,,,,,,,,,,,,,,,,,,,,,1.7,0.8,1.6*37
$GPZDA,174141.00,16,12,2018,00,00*6F
$GPGGA,174141,5002.8334,N,01953.2911,E,1,12,0.89,172.79,M,41.969,M,,*41
$GPRMC,174141,A,5002.8334,N,01953.2911,E,0.0809,252.217,161218,,*28
$GPGSA,A,3,13,15,17,19,24,28,68,69,70,78,79,87,88,,,,,,,,,,,,,,,,,,,,,,,,,,,,,,,,,,,,,,2.0,0.9,1.8*3C
$GPGBS,174141,10.42,M,12.08,M,40.25,M*07
$GPZDA,174142.00,16,12,2018,00,00*6C
$GPGGA,174142,5002.8334,N,01953.2910,E,1,12,0.89,172.68,M,41.969,M,,*43
$GPRMC,174142,A,5002.8334,N,01953.2910,E,0.1180,233.867,161218,,*29
$GPGSA,A,3,13,15,17,19,24,28,68,69,70,78,79,87,88,,,,,,,,,,,,,,,,,,,,,,,,,,,,,,,,,,,,,,2.0,0.9,1.8*3C
$GPZDA,174143.00,16,12,2018,00,00*6D
$GPGGA,174143,5002.8334,N,01953.2909,E,1,12,0.89,173.03,M,41.969,M,,*46
$GPRMC,174143,A,5002.8334,N,01953.2909,E,0.0139,229.195,161218,,*2C
$GPGSA,A,3,13,15,17,19,24,28,68,69,70,78,79,87,88,,,,,,,,,,,,,,,,,,,,,,,,,,,,,,,,,,,,,,2.0,0.9,1.8*3C
$GPGBS,174143,10.42,M,12.08,M,40.25,M*05
$GPZDA,174144.00,16,12,2018,00,00*6A
$GPGGA,174144,5002.8334,N,01953.2908,E,1,12,0.89,173.46,M,41.969,M,,*41
$GPRMC,174144,A,5002.8334,N,01953.2908,E,0.0546,341.744,161218,,*23
$GPGSA,A,3,13,15,17,19,24,28,68,69,70,78,79,87,88,,,,,,,,,,,,,,,,,,,,,,,,,,,,,,,,,,,,,,2.0,0.9,1.8*3C
$GPZDA,174145.00,16,12,2018,00,00*6B
$GPGGA,174145,5002.8334,N,01953.2908,E,1,12,0.89,173.66,M,41.969,M,,*42
$GPRMC,174145,A,5002.8334,N,01953.2908,E,0.0918,188.522,161218,,*20
$GPGSA,A,3,13,15,17,19,24,28,68,69,70,78,79,87,88,,,,,,,,,,,,,,,,,,,,,,,,,,,,,,,,,,,,,,2.0,0.9,1.8*3C
$GPGBS,174145,10.42,M,12.08,M,40.25,M*03
$GPZDA,174146.00,16,12,2018,00,00*68
$GPGGA,174146,5002.8333,N,01953.2908,E,1,11,0.89,174.57,M,41.969,M,,*40
$GPRMC,174146,A,5002.8333,N,01953.2908,E,0.1753,236.509,161218,,*2B
$GPGSA,A,3,13,15,17,19,24,28,68,69,70,78,79,87,88,,,,,,,,,,,,,,,,,,,,,,,,,,,,,,,,,,,,,,2.0,0.9,1.8*3C
$GPGSV,4,1,15,12,24,235,12,13,39,168,28,15,55,222,33,17,48,088,31*79
$GPGSV,4,2,15,19,43,133,32,20,13,288,10,24,58,292,34,28,26,057,22*7E
$GPGSV,4,3,15,69,44,255,23,70,26,326,23,78,50,059,30,79,61,306,33*7A
$GPGSV,4,4,15,81,16,140,15,87,27,035,30,88,37,091,29*4A
$GPZDA,174147.00,16,12,2018,00,00*69
$GPGGA,174147,5002.8333,N,01953.2907,E,1,11,1.02,175.22,M,41.969,M,,*4F
$GPRMC,174147,A,5002.8333,N,01953.2907,E,0.4526,308.486,161218,,*2A
$GPGSA,A,3,13,15,17,19,24,28,69,78,79,87,88,,,,,,,,,,,,,,,,,,,,,,,,,,,,,,,,,,,,,,,,2.9,1.0,2.8*37
$GPGBS,174147,10.42,M,12.08,M,63.48,M*0B
$GPZDA,174148.00,16,12,2018,00,00*66
$GPGGA,174148,5002.8328,N,01953.2905,E,1,11,1.02,174.38,M,41.969,M,,*42
$GPRMC,174148,A,5002.8328,N,01953.2905,E,1.5056,185.724,161218,,*23
$GPGSA,A,3,13,15,17,19,24,28,69,78,79,87,88,,,,,,,,,,,,,,,,,,,,,,,,,,,,,,,,,,,,,,,,2.9,1.0,2.8*37
$GPZDA,174149.00,16,12,2018,00,00*67
$GPGGA,174149,5002.8326,N,01953.2904,E,1,10,1.02,172.59,M,41.969,M,,*4C
$GPRMC,174149,A,5002.8326,N,01953.2904,E,0.3491,102.815,161218,,*27
$GPGSA,A,3,13,15,17,19,24,28,69,78,79,87,88,,,,,,,,,,,,,,,,,,,,,,,,,,,,,,,,,,,,,,,,2.9,1.0,2.8*37
$GPGBS,174149,10.42,M,12.08,M,63.25,M*0E
$GPZDA,174150.00,16,12,2018,00,00*6F
$GPGGA,174150,5002.8327,N,01953.2904,E,1,10,1.04,170.55,M,41.969,M,,*4D
$GPRMC,174150,A,5002.8327,N,01953.2904,E,0.6121,20.661,161218,,*19
$GPGSA,A,3,13,15,17,19,24,28,69,78,79,87,88,,,,,,,,,,,,,,,,,,,,,,,,,,,,,,,,,,,,,,,,3.2,1.0,3.1*35
$GPZDA,174151.00,16,12,2018,00,00*6E
$GPGGA,174151,5002.8327,N,01953.2904,E,1,10,1.04,169.93,M,41.969,M,,*4E
$GPRMC,174151,A,5002.8327,N,01953.2904,E,0.2831,269.504,161218,,*2B
$GPGSA,A,3,13,15,17,19,24,28,69,78,79,87,88,,,,,,,,,,,,,,,,,,,,,,,,,,,,,,,,,,,,,,,,3.2,1.0,3.1*35
$GPGBS,174151,10.42,M,12.08,M,70.84,M*0E
$GPZDA,174152.00,16,12,2018,00,00*6D
$GPGGA,174152,5002.8328,N,01953.2903,E,1,10,0.96,169.44,M,41.969,M,,*45
$GPRMC,174152,A,5002.8328,N,01953.2903,E,0.4920,341.961,161218,,*23
$GPGSA,A,3,13,15,17,19,24,28,69,78,79,87,88,,,,,,,,,,,,,,,,,,,,,,,,,,,,,,,,,,,,,,,,2.3,1.0,2.1*34
$GPZDA,174153.00,16,12,2018,00,00*6C
$GPGGA,174153,5002.8327,N,01953.2901,E,1,10,0.96,169.13,M,41.969,M,,*4B
$GPRMC,174153,A,5002.8327,N,01953.2901,E,0.5199,333.295,161218,,*21
$GPGSA,A,3,13,15,17,19,24,28,69,78,79,87,88,,,,,,,,,,,,,,,,,,,,,,,,,,,,,,,,,,,,,,,,2.3,1.0,2.1*34
$GPGBS,174153,10.42,M,12.08,M,48.99,M*0B
$GPZDA,174154.00,16,12,2018,00,00*6B
$GPGGA,174154,5002.8324,N,01953.2897,E,1,11,0.96,168.61,M,41.969,M,,*44
$GPRMC,174154,A,5002.8324,N,01953.2897,E,0.2974,356.642,161218,,*2A
$GPGSA,A,3,13,15,17,19,24,28,69,78,79,87,88,,,,,,,,,,,,,,,,,,,,,,,,,,,,,,,,,,,,,,,,2.3,1.0,2.1*34
$GPZDA,174155.00,16,12,2018,00,00*6A
$GPGGA,174155,5002.8324,N,01953.2894,E,1,11,0.93,167.51,M,41.969,M,,*4F
$GPRMC,174155,A,5002.8324,N,01953.2894,E,0.2306,323.002,161218,,*27
$GPGSA,A,3,13,15,17,19,24,28,69,78,79,87,88,,,,,,,,,,,,,,,,,,,,,,,,,,,,,,,,,,,,,,,,2.0,0.9,1.7*3A
$GPGBS,174155,10.42,M,12.08,M,40.02,M*07
$GPZDA,174156.00,16,12,2018,00,00*69
$GPGGA,174156,5002.8323,N,01953.2893,E,1,11,0.93,167.67,M,41.969,M,,*49
$GPRMC,174156,A,5002.8323,N,01953.2893,E,0.3729,350.649,161218,,*21
$GPGSA,A,3,13,15,17,19,24,28,69,78,79,87,88,,,,,,,,,,,,,,,,,,,,,,,,,,,,,,,,,,,,,,,,2.0,0.9,1.7*3A
$GPGSV,5,1,17,10,14,315,22,12,24,235,21,13,39,168,32,15,55,222,35*7C
$GPGSV,5,2,17,17,48,087,32,19,43,132,27,20,12,287,22,24,58,292,34*7F
$GPGSV,5,3,17,28,26,057,08,68,16,205,26,69,44,255,34,70,26,326,22*79
$GPGSV,5,4,17,78,50,059,28,79,61,306,32,80,14,274,18,81,16,140,08*79
$GPGSV,5,5,17,87,27,035,23*42
$GPZDA,174157.00,16,12,2018,00,00*68
$GPGGA,174157,5002.8324,N,01953.2895,E,1,11,0.93,166.29,M,41.969,M,,*42
$GPRMC,174157,A,5002.8324,N,01953.2895,E,0.9551,82.745,161218,,*17
$GPGSA,A,3,12,13,15,17,19,24,68,69,78,79,87,,,,,,,,,,,,,,,,,,,,,,,,,,,,,,,,,,,,,,,,2.0,0.9,1.7*3D
$GPGBS,174157,10.42,M,12.08,M,40.02,M*05
$GPZDA,174158.00,16,12,2018,00,00*67
$GPGGA,174158,5002.8323,N,01953.2896,E,1,10,0.93,168.78,M,41.969,M,,*42
$GPRMC,174158,A,5002.8323,N,01953.2896,E,0.2212,323.175,161218,,*2A
$GPGSA,A,3,12,13,15,17,19,24,68,69,78,79,87,,,,,,,,,,,,,,,,,,,,,,,,,,,,,,,,,,,,,,,,2.0,0.9,1.7*3D
$GPZDA,174159.00,16,12,2018,00,00*66
$GPGGA,174159,5002.8323,N,01953.2894,E,1,10,1.32,169.18,M,41.969,M,,*4C
$GPRMC,174159,A,5002.8323,N,01953.2894,E,0.8099,314.632,161218,,*22
$GPGSA,A,3,12,13,15,17,19,24,68,69,78,79,87,,,,,,,,,,,,,,,,,,,,,,,,,,,,,,,,,,,,,,,,3.0,1.3,2.6*35
$GPGBS,174159,10.42,M,12.08,M,60.95,M*07
$GPZDA,174200.00,16,12,2018,00,00*69
$GPGGA,174200,5002.8321,N,01953.2892,E,1,10,1.32,169.94,M,41.969,M,,*43
$GPRMC,174200,A,5002.8321,N,01953.2892,E,0.2362,337.852,161218,,*2D
$GPGSA,A,3,12,13,15,17,19,24,68,69,78,79,87,,,,,,,,,,,,,,,,,,,,,,,,,,,,,,,,,,,,,,,,3.0,1.3,2.6*35
$GPZDA,174201.00,16,12,2018,00,00*68
$GPGGA,174201,5002.8319,N,01953.2891,E,1,10,1.32,171.01,M,41.969,M,,*4F
$GPRMC,174201,A,5002.8319,N,01953.2891,E,0.0659,71.792,161218,,*19
$GPGSA,A,3,12,13,15,17,19,24,68,69,78,79,87,,,,,,,,,,,,,,,,,,,,,,,,,,,,,,,,,,,,,,,,3.0,1.3,2.6*35
$GPGBS,174201,10.42,M,12.08,M,60.95,M*09
$GPZDA,174202.00,16,12,2018,00,00*6B
$GPGGA,174202,5002.8318,N,01953.2890,E,1,11,1.32,171.26,M,41.969,M,,*48
$GPRMC,174202,A,5002.8318,N,01953.2890,E,0.1853,12.736,161218,,*14
$GPGSA,A,3,12,13,15,17,19,24,68,69,78,79,87,,,,,,,,,,,,,,,,,,,,,,,,,,,,,,,,,,,,,,,,3.0,1.3,2.6*35
$GPZDA,174203.00,16,12,2018,00,00*6A
$GPGGA,174203,5002.8318,N,01953.2889,E,1,11,0.93,170.91,M,41.969,M,,*46
$GPRMC,174203,A,5002.8318,N,01953.2889,E,0.3812,2.578,161218,,*23
$GPGSA,A,3,12,13,15,17,19,24,68,69,78,79,87,,,,,,,,,,,,,,,,,,,,,,,,,,,,,,,,,,,,,,,,2.0,0.9,1.7*3D
$GPGBS,174203,10.42,M,12.08,M,40.02,M*07
$GPZDA,174204.00,16,12,2018,00,00*6D
$GPGGA,174204,5002.8316,N,01953.2889,E,1,10,0.93,171.57,M,41.969,M,,*45
$GPRMC,174204,A,5002.8316,N,01953.2889,E,0.0987,335.808,161218,,*29
$GPGSA,A,3,12,13,15,17,19,24,68,69,78,79,87,,,,,,,,,,,,,,,,,,,,,,,,,,,,,,,,,,,,,,,,2.0,0.9,1.7*3D
$GPZDA,174205.00,16,12,2018,00,00*6C
$GPGGA,174205,5002.8314,N,01953.2889,E,1,09,1.32,172.51,M,41.969,M,,*41
$GPRMC,174205,A,5002.8314,N,01953.2889,E,0.0727,323.192,161218,,*23
$GPGSA,A,3,12,13,15,17,19,24,68,69,78,79,87,,,,,,,,,,,,,,,,,,,,,,,,,,,,,,,,,,,,,,,,3.0,1.3,2.6*35
$GPGBS,174205,10.42,M,12.08,M,60.95,M*0D
$GPZDA,174206.00,16,12,2018,00,00*6F
$GPGGA,174206,5002.8312,N,01953.2889,E,1,09,1.38,173.66,M,41.969,M,,*4B
$GPRMC,174206,A,5002.8312,N,01953.2889,E,0.0553,356.380,161218,,*24
$GPGSA,A,3,12,13,15,17,19,24,68,69,78,79,87,,,,,,,,,,,,,,,,,,,,,,,,,,,,,,,,,,,,,,,,3.3,1.4,3.0*36
$GPGSV,5,1,17,10,14,315,10,12,24,235,20,13,39,168,31,15,55,222,35*7F
$GPGSV,5,2,17,17,48,087,33,19,43,132,27,20,12,287,07,24,58,292,30*7D
$GPGSV,5,3,17,28,26,057,19,68,16,205,28,69,44,255,33,70,26,326,25*77
$GPGSV,5,4,17,78,50,059,28,79,61,306,31,80,14,274,09,81,16,140,23*73
