{"class":"VERSION","release":"3.16","rev":"3.16-4","proto_major":3,"proto_minor":11}
{"class":"DEVICES","devices":[{"class":"DEVICE","path":"/dev/serial0","driver":"u-blox","subtype":"SW ROM CORE 3.01 (107888),HW 00080000,FWVER=SPG 3.01,PROTVER=18","activated":"2018-12-04T18:01:18.828Z","flags":1,"native":1,"bps":9600,"parity":"N","stopbits":1,"cycle":1.00,"mincycle":0.25}]}
{"class":"WATCH","enable":true,"json":false,"nmea":true,"raw":0,"scaled":false,"timing":false,"split24":false,"pps":false}
$GPRMC,000000,V,0000.0000,S,00000.0000,W,0.0000,0.000,000000,,*35
$GPGSA,A,1,,,,,,,,,,,,,,,,,,,,,,,,,,,,,,,,,,,,,,,,,,,,,,,,,,,,,,*32
$GPRMC,000000,V,0000.0000,S,00000.0000,W,0.0000,0.000,000000,,*35
$GPGSA,A,1,,,,,,,,,,,,,,,,,,,,,,,,,,,,,,,,,,,,,,,,,,,,,,,,,,,,,,*32
$GPRMC,000000,V,0000.0000,S,00000.0000,W,0.0000,0.000,000000,,*35
$GPGSA,A,1,,,,,,,,,,,,,,,,,,,,,,,,,,,,,,,,,,,,,,,,,,,,,,,,,,,,,,*32
$GPRMC,000000,V,0000.0000,S,00000.0000,W,0.0000,0.000,000000,,*35
$GPGSA,A,1,,,,,,,,,,,,,,,,,,,,,,,,,,,,,,,,,,,,,,,,,,,,,,,,,,,,,,*32
$GPRMC,000000,V,0000.0000,S,00000.0000,W,0.0000,0.000,000000,,*35
$GPGSA,A,1,,,,,,,,,,,,,,,,,,,,,,,,,,,,,,,,,,,,,,,,,,,,,,,,,,,,,,*32
$GPRMC,000000,V,0000.0000,S,00000.0000,W,0.0000,0.000,000000,,*35
$GPGSA,A,1,,,,,,,,,,,,,,,,,,,,,,,,,,,,,,,,,,,,,,,,,,,,,,,,,,,,,,*32
$GPRMC,000000,V,0000.0000,S,00000.0000,W,0.0000,0.000,000000,,*35
$GPGSA,A,1,,,,,,,,,,,,,,,,,,,,,,,,,,,,,,,,,,,,,,,,,,,,,,,,,,,,,,*32
$GPRMC,000000,V,0000.0000,S,00000.0000,W,0.0000,0.000,000000,,*35
$GPGSA,A,1,,,,,,,,,,,,,,,,,,,,,,,,,,,,,,,,,,,,,,,,,,,,,,,,,,,,,,*32
$GPRMC,000000,V,0000.0000,S,00000.0000,W,0.0000,0.000,000000,,*35
$GPGSA,A,1,,,,,,,,,,,,,,,,,,,,,,,,,,,,,,,,,,,,,,,,,,,,,,,,,,,,,,*32
$GPRMC,000000,V,0000.0000,S,00000.0000,W,0.0000,0.000,000000,,*35
$GPGSA,A,1,,,,,,,,,,,,,,,,,,,,,,,,,,,,,,,,,,,,,,,,,,,,,,,,,,,,,,*32
$GPRMC,000000,V,0000.0000,S,00000.0000,W,0.0000,0.000,000000,,*35
$GPGSA,A,1,,,,,,,,,,,,,,,,,,,,,,,,,,,,,,,,,,,,,,,,,,,,,,,,,,,,,,*32
$GPRMC,180132,V,0000.0000,S,00000.0000,W,0.0000,0.000,240899,,*32
$GPGSA,A,1,,,,,,,,,,,,,,,,,,,,,,,,,,,,,,,,,,,,,,,,,,,,,,,,,,,,,,*32
$GPRMC,180133,V,0000.0000,S,00000.0000,W,0.0000,0.000,240899,,*33
$GPGSA,A,1,,,,,,,,,,,,,,,,,,,,,,,,,,,,,,,,,,,,,,,,,,,,,,,,,,,,,,*32
$GPRMC,180134,V,0000.0000,S,00000.0000,W,0.0000,0.000,240899,,*34
$GPGSA,A,1,,,,,,,,,,,,,,,,,,,,,,,,,,,,,,,,,,,,,,,,,,,,,,,,,,,,,,*32
$GPRMC,180135,V,0000.0000,S,00000.0000,W,0.0000,0.000,240899,,*35
$GPGSA,A,1,,,,,,,,,,,,,,,,,,,,,,,,,,,,,,,,,,,,,,,,,,,,,,,,,,,,,,*32
$GPRMC,180136,V,0000.0000,S,00000.0000,W,0.0000,0.000,240899,,*36
$GPGSA,A,1,,,,,,,,,,,,,,,,,,,,,,,,,,,,,,,,,,,,,,,,,,,,,,,,,,,,,,*32
$GPRMC,180137,V,0000.0000,S,00000.0000,W,0.0000,0.000,240899,,*37
$GPGSA,A,1,,,,,,,,,,,,,,,,,,,,,,,,,,,,,,,,,,,,,,,,,,,,,,,,,,,,,,*32
$GPRMC,180138,V,0000.0000,S,00000.0000,W,0.0000,0.000,240899,,*38
$GPGSA,A,1,,,,,,,,,,,,,,,,,,,,,,,,,,,,,,,,,,,,,,,,,,,,,,,,,,,,,,*32
$GPRMC,180139,V,0000.0000,S,00000.0000,W,0.0000,0.000,240899,,*39
$GPGSA,A,1,,,,,,,,,,,,,,,,,,,,,,,,,,,,,,,,,,,,,,,,,,,,,,,,,,,,,,*32
$GPRMC,180140,V,0000.0000,S,00000.0000,W,0.0000,0.000,240899,,*37
$GPGSA,A,1,,,,,,,,,,,,,,,,,,,,,,,,,,,,,,,,,,,,,,,,,,,,,,,,,,,,,,*32
$GPRMC,180141,V,0000.0000,S,00000.0000,W,0.0000,0.000,240899,,*36
$GPGSA,A,1,,,,,,,,,,,,,,,,,,,,,,,,,,,,,,,,,,,,,,,,,,,,,,,,,,,,,,*32
$GPRMC,180142,V,0000.0000,S,00000.0000,W,0.0000,0.000,240899,,*35
$GPGSA,A,1,,,,,,,,,,,,,,,,,,,,,,,,,,,,,,,,,,,,,,,,,,,,,,,,,,,,,,*32
$GPRMC,180143,V,0000.0000,S,00000.0000,W,0.0000,0.000,240899,,*34
$GPGSA,A,1,,,,,,,,,,,,,,,,,,,,,,,,,,,,,,,,,,,,,,,,,,,,,,,,,,,,,,*32
$GPRMC,180144,V,0000.0000,S,00000.0000,W,0.0000,0.000,240899,,*33
$GPGSA,A,1,,,,,,,,,,,,,,,,,,,,,,,,,,,,,,,,,,,,,,,,,,,,,,,,,,,,,,*32
$GPRMC,180145,V,0000.0000,S,00000.0000,W,0.0000,0.000,041218,,*32
$GPGSA,A,1,,,,,,,,,,,,,,,,,,,,,,,,,,,,,,,,,,,,,,,,,,,,,,,,,,,,,,*32
$GPRMC,180146,V,0000.0000,S,00000.0000,W,0.0000,0.000,041218,,*31
$GPGSA,A,1,,,,,,,,,,,,,,,,,,,,,,,,,,,,,,,,,,,,,,,,,,,,,,,,,,,,,,*32
$GPRMC,180147,V,0000.0000,S,00000.0000,W,0.0000,0.000,041218,,*30
$GPGSA,A,1,,,,,,,,,,,,,,,,,,,,,,,,,,,,,,,,,,,,,,,,,,,,,,,,,,,,,,*32
$GPRMC,180148,V,0000.0000,S,00000.0000,W,0.0000,0.000,041218,,*3F
$GPGSA,A,1,,,,,,,,,,,,,,,,,,,,,,,,,,,,,,,,,,,,,,,,,,,,,,,,,,,,,,*32
$GPRMC,180149,V,0000.0000,S,00000.0000,W,0.0000,0.000,041218,,*3E
$GPGSA,A,1,,,,,,,,,,,,,,,,,,,,,,,,,,,,,,,,,,,,,,,,,,,,,,,,,,,,,,*32
$GPRMC,180150,V,0000.0000,S,00000.0000,W,0.0000,0.000,041218,,*36
$GPGSA,A,1,,,,,,,,,,,,,,,,,,,,,,,,,,,,,,,,,,,,,,,,,,,,,,,,,,,,,,*32
$GPRMC,180151,V,0000.0000,S,00000.0000,W,0.0000,0.000,041218,,*37
$GPGSA,A,1,,,,,,,,,,,,,,,,,,,,,,,,,,,,,,,,,,,,,,,,,,,,,,,,,,,,,,*32
$GPRMC,180152,V,0000.0000,S,00000.0000,W,0.0000,0.000,041218,,*34
$GPGSA,A,1,,,,,,,,,,,,,,,,,,,,,,,,,,,,,,,,,,,,,,,,,,,,,,,,,,,,,,*32
$GPRMC,180153,V,0000.0000,S,00000.0000,W,0.0000,0.000,041218,,*35
$GPGSA,A,1,,,,,,,,,,,,,,,,,,,,,,,,,,,,,,,,,,,,,,,,,,,,,,,,,,,,,,*32
$GPRMC,180154,V,0000.0000,S,00000.0000,W,0.0000,0.000,041218,,*32
$GPGSA,A,1,,,,,,,,,,,,,,,,,,,,,,,,,,,,,,,,,,,,,,,,,,,,,,,,,,,,,,*32
$GPRMC,180155,V,0000.0000,S,00000.0000,W,0.0000,0.000,041218,,*33
$GPGSA,A,1,,,,,,,,,,,,,,,,,,,,,,,,,,,,,,,,,,,,,,,,,,,,,,,,,,,,,,*32
$GPRMC,180156,V,0000.0000,S,00000.0000,W,0.0000,0.000,041218,,*30
$GPGSA,A,1,,,,,,,,,,,,,,,,,,,,,,,,,,,,,,,,,,,,,,,,,,,,,,,,,,,,,,*32
$GPRMC,180157,V,0000.0000,S,00000.0000,W,0.0000,0.000,041218,,*31
$GPGSA,A,1,,,,,,,,,,,,,,,,,,,,,,,,,,,,,,,,,,,,,,,,,,,,,,,,,,,,,,*32
$GPRMC,180158,V,0000.0000,S,00000.0000,W,0.0000,0.000,041218,,*3E
$GPGSA,A,1,,,,,,,,,,,,,,,,,,,,,,,,,,,,,,,,,,,,,,,,,,,,,,,,,,,,,,*32
$GPRMC,180159,V,0000.0000,S,00000.0000,W,0.0000,0.000,041218,,*3F
$GPGSA,A,1,,,,,,,,,,,,,,,,,,,,,,,,,,,,,,,,,,,,,,,,,,,,,,,,,,,,,,*32
$GPRMC,180200,V,0000.0000,S,00000.0000,W,0.0000,0.000,041218,,*30
$GPGSA,A,1,,,,,,,,,,,,,,,,,,,,,,,,,,,,,,,,,,,,,,,,,,,,,,,,,,,,,,*32
$GPRMC,180201,V,0000.0000,S,00000.0000,W,0.0000,0.000,041218,,*31
$GPGSA,A,1,,,,,,,,,,,,,,,,,,,,,,,,,,,,,,,,,,,,,,,,,,,,,,,,,,,,,,*32
$GPRMC,180202,V,0000.0000,S,00000.0000,W,0.0000,0.000,041218,,*32
$GPGSA,A,1,,,,,,,,,,,,,,,,,,,,,,,,,,,,,,,,,,,,,,,,,,,,,,,,,,,,,,*32
$GPRMC,180203,V,0000.0000,S,00000.0000,W,0.0000,0.000,041218,,*33
$GPGSA,A,1,,,,,,,,,,,,,,,,,,,,,,,,,,,,,,,,,,,,,,,,,,,,,,,,,,,,,,*32
$GPRMC,180204,V,0000.0000,S,00000.0000,W,0.0000,0.000,041218,,*34
$GPGSA,A,1,,,,,,,,,,,,,,,,,,,,,,,,,,,,,,,,,,,,,,,,,,,,,,,,,,,,,,*32
$GPRMC,180205,V,0000.0000,S,00000.0000,W,0.0000,0.000,041218,,*35
$GPGSA,A,1,,,,,,,,,,,,,,,,,,,,,,,,,,,,,,,,,,,,,,,,,,,,,,,,,,,,,,*32
$GPRMC,180206,V,0000.0000,S,00000.0000,W,0.0000,0.000,041218,,*36
$GPGSA,A,1,,,,,,,,,,,,,,,,,,,,,,,,,,,,,,,,,,,,,,,,,,,,,,,,,,,,,,*32
$GPRMC,180207,V,0000.0000,S,00000.0000,W,0.0000,0.000,041218,,*37
$GPGSA,A,1,,,,,,,,,,,,,,,,,,,,,,,,,,,,,,,,,,,,,,,,,,,,,,,,,,,,,,*32
$GPRMC,180208,V,0000.0000,S,00000.0000,W,0.0000,0.000,041218,,*38
$GPGSA,A,1,,,,,,,,,,,,,,,,,,,,,,,,,,,,,,,,,,,,,,,,,,,,,,,,,,,,,,*32
$GPRMC,180209,V,0000.0000,S,00000.0000,W,0.0000,0.000,041218,,*39
$GPGSA,A,1,,,,,,,,,,,,,,,,,,,,,,,,,,,,,,,,,,,,,,,,,,,,,,,,,,,,,,*32
$GPRMC,180210,V,0000.0000,S,00000.0000,W,0.0000,0.000,041218,,*31
$GPGSA,A,1,,,,,,,,,,,,,,,,,,,,,,,,,,,,,,,,,,,,,,,,,,,,,,,,,,,,,,*32
$GPRMC,180211,V,0000.0000,S,00000.0000,W,0.0000,0.000,041218,,*30
$GPGSA,A,1,,,,,,,,,,,,,,,,,,,,,,,,,,,,,,,,,,,,,,,,,,,,,,,,,,,,,,*32
$GPRMC,180212,V,0000.0000,S,00000.0000,W,0.0000,0.000,041218,,*33
$GPGSA,A,1,,,,,,,,,,,,,,,,,,,,,,,,,,,,,,,,,,,,,,,,,,,,,,,,,,,,,,*32
$GPRMC,180213,V,0000.0000,S,00000.0000,W,0.0000,0.000,041218,,*32
$GPGSA,A,1,,,,,,,,,,,,,,,,,,,,,,,,,,,,,,,,,,,,,,,,,,,,,,,,,,,,,,*32
$GPRMC,180214,V,0000.0000,S,00000.0000,W,0.0000,0.000,041218,,*35
$GPGSA,A,1,,,,,,,,,,,,,,,,,,,,,,,,,,,,,,,,,,,,,,,,,,,,,,,,,,,,,,*32
$GPRMC,180215,V,0000.0000,S,00000.0000,W,0.0000,0.000,041218,,*34
$GPGSA,A,1,,,,,,,,,,,,,,,,,,,,,,,,,,,,,,,,,,,,,,,,,,,,,,,,,,,,,,*32
$GPRMC,180216,V,0000.0000,S,00000.0000,W,0.0000,0.000,041218,,*37
$GPGSA,A,1,,,,,,,,,,,,,,,,,,,,,,,,,,,,,,,,,,,,,,,,,,,,,,,,,,,,,,*32
$GPRMC,180217,V,0000.0000,S,00000.0000,W,0.0000,0.000,041218,,*36
$GPGSA,A,1,,,,,,,,,,,,,,,,,,,,,,,,,,,,,,,,,,,,,,,,,,,,,,,,,,,,,,*32
$GPRMC,180218,V,0000.0000,S,00000.0000,W,0.0000,0.000,041218,,*39
$GPGSA,A,1,,,,,,,,,,,,,,,,,,,,,,,,,,,,,,,,,,,,,,,,,,,,,,,,,,,,,,*32
$GPRMC,180219,V,0000.0000,S,00000.0000,W,0.0000,0.000,041218,,*38
$GPGSA,A,1,,,,,,,,,,,,,,,,,,,,,,,,,,,,,,,,,,,,,,,,,,,,,,,,,,,,,,*32
$GPRMC,180220,V,0000.0000,S,00000.0000,W,0.0000,0.000,041218,,*32
$GPGSA,A,1,,,,,,,,,,,,,,,,,,,,,,,,,,,,,,,,,,,,,,,,,,,,,,,,,,,,,,*32
$GPRMC,180221,V,0000.0000,S,00000.0000,W,0.0000,0.000,041218,,*33
$GPGSA,A,1,,,,,,,,,,,,,,,,,,,,,,,,,,,,,,,,,,,,,,,,,,,,,,,,,,,,,,*32
$GPRMC,180222,V,0000.0000,S,00000.0000,W,0.0000,0.000,041218,,*30
$GPGSA,A,1,,,,,,,,,,,,,,,,,,,,,,,,,,,,,,,,,,,,,,,,,,,,,,,,,,,,,,*32
$GPRMC,180223,V,0000.0000,S,00000.0000,W,0.0000,0.000,041218,,*31
$GPGSA,A,1,,,,,,,,,,,,,,,,,,,,,,,,,,,,,,,,,,,,,,,,,,,,,,,,,,,,,,*32
$GPRMC,180224,V,0000.0000,S,00000.0000,W,0.0000,0.000,041218,,*36
$GPGSA,A,1,,,,,,,,,,,,,,,,,,,,,,,,,,,,,,,,,,,,,,,,,,,,,,,,,,,,,,*32
$GPRMC,180225,V,0000.0000,S,00000.0000,W,0.0000,0.000,041218,,*37
$GPGSA,A,1,,,,,,,,,,,,,,,,,,,,,,,,,,,,,,,,,,,,,,,,,,,,,,,,,,,,,,*32
$GPRMC,180226,V,0000.0000,S,00000.0000,W,0.0000,0.000,041218,,*34
$GPGSA,A,1,,,,,,,,,,,,,,,,,,,,,,,,,,,,,,,,,,,,,,,,,,,,,,,,,,,,,,*32
$GPRMC,180227,V,0000.0000,S,00000.0000,W,0.0000,0.000,041218,,*35
$GPGSA,A,1,,,,,,,,,,,,,,,,,,,,,,,,,,,,,,,,,,,,,,,,,,,,,,,,,,,,,,*32
$GPRMC,180228,V,0000.0000,S,00000.0000,W,0.0000,0.000,041218,,*3A
$GPGSA,A,1,,,,,,,,,,,,,,,,,,,,,,,,,,,,,,,,,,,,,,,,,,,,,,,,,,,,,,*32
$GPRMC,180229,V,0000.0000,S,00000.0000,W,0.0000,0.000,041218,,*3B
$GPGSA,A,1,,,,,,,,,,,,,,,,,,,,,,,,,,,,,,,,,,,,,,,,,,,,,,,,,,,,,,*32
$GPRMC,180230,V,0000.0000,S,00000.0000,W,0.0000,0.000,041218,,*33
$GPGSA,A,1,,,,,,,,,,,,,,,,,,,,,,,,,,,,,,,,,,,,,,,,,,,,,,,,,,,,,,*32
$GPRMC,180231,V,0000.0000,S,00000.0000,W,0.0000,0.000,041218,,*32
$GPGSA,A,1,,,,,,,,,,,,,,,,,,,,,,,,,,,,,,,,,,,,,,,,,,,,,,,,,,,,,,*32
$GPRMC,180232,V,0000.0000,S,00000.0000,W,0.0000,0.000,041218,,*31
$GPGSA,A,1,,,,,,,,,,,,,,,,,,,,,,,,,,,,,,,,,,,,,,,,,,,,,,,,,,,,,,*32
$GPRMC,180233,V,0000.0000,S,00000.0000,W,0.0000,0.000,041218,,*30
$GPGSA,A,1,,,,,,,,,,,,,,,,,,,,,,,,,,,,,,,,,,,,,,,,,,,,,,,,,,,,,,*32
$GPRMC,180234,V,0000.0000,S,00000.0000,W,0.0000,0.000,041218,,*37
$GPGSA,A,1,,,,,,,,,,,,,,,,,,,,,,,,,,,,,,,,,,,,,,,,,,,,,,,,,,,,,,*32
$GPRMC,180235,V,0000.0000,S,00000.0000,W,0.0000,0.000,041218,,*36
$GPGSA,A,1,,,,,,,,,,,,,,,,,,,,,,,,,,,,,,,,,,,,,,,,,,,,,,,,,,,,,,*32
$GPRMC,180236,V,0000.0000,S,00000.0000,W,0.0000,0.000,041218,,*35
$GPGSA,A,1,,,,,,,,,,,,,,,,,,,,,,,,,,,,,,,,,,,,,,,,,,,,,,,,,,,,,,*32
$GPRMC,180237,V,0000.0000,S,00000.0000,W,0.0000,0.000,041218,,*34
$GPGSA,A,1,,,,,,,,,,,,,,,,,,,,,,,,,,,,,,,,,,,,,,,,,,,,,,,,,,,,,,*32
$GPRMC,180238,V,0000.0000,S,00000.0000,W,0.0000,0.000,041218,,*3B
$GPGSA,A,1,,,,,,,,,,,,,,,,,,,,,,,,,,,,,,,,,,,,,,,,,,,,,,,,,,,,,,*32
$GPRMC,180239,V,0000.0000,S,00000.0000,W,0.0000,0.000,041218,,*3A
$GPGSA,A,1,,,,,,,,,,,,,,,,,,,,,,,,,,,,,,,,,,,,,,,,,,,,,,,,,,,,,,*32
$GPRMC,180240,V,0000.0000,S,00000.0000,W,0.0000,0.000,041218,,*34
$GPGSA,A,1,,,,,,,,,,,,,,,,,,,,,,,,,,,,,,,,,,,,,,,,,,,,,,,,,,,,,,*32
$GPRMC,180241,V,0000.0000,S,00000.0000,W,0.0000,0.000,041218,,*35
$GPGSA,A,1,,,,,,,,,,,,,,,,,,,,,,,,,,,,,,,,,,,,,,,,,,,,,,,,,,,,,,*32
$GPRMC,180242,V,0000.0000,S,00000.0000,W,0.0000,0.000,041218,,*36
$GPGSA,A,1,,,,,,,,,,,,,,,,,,,,,,,,,,,,,,,,,,,,,,,,,,,,,,,,,,,,,,*32
$GPRMC,180243,V,0000.0000,S,00000.0000,W,0.0000,0.000,041218,,*37
$GPGSA,A,1,,,,,,,,,,,,,,,,,,,,,,,,,,,,,,,,,,,,,,,,,,,,,,,,,,,,,,*32
$GPRMC,180244,V,0000.0000,S,00000.0000,W,0.0000,0.000,041218,,*30
$GPGSA,A,1,,,,,,,,,,,,,,,,,,,,,,,,,,,,,,,,,,,,,,,,,,,,,,,,,,,,,,*32
$GPRMC,180245,V,0000.0000,S,00000.0000,W,0.0000,0.000,041218,,*31
$GPGSA,A,1,,,,,,,,,,,,,,,,,,,,,,,,,,,,,,,,,,,,,,,,,,,,,,,,,,,,,,*32
$GPRMC,180246,V,0000.0000,S,00000.0000,W,0.0000,0.000,041218,,*32
$GPGSA,A,1,,,,,,,,,,,,,,,,,,,,,,,,,,,,,,,,,,,,,,,,,,,,,,,,,,,,,,*32
$GPRMC,180247,V,0000.0000,S,00000.0000,W,0.0000,0.000,041218,,*33
$GPGSA,A,1,,,,,,,,,,,,,,,,,,,,,,,,,,,,,,,,,,,,,,,,,,,,,,,,,,,,,,*32
$GPRMC,180248,V,0000.0000,S,00000.0000,W,0.0000,0.000,041218,,*3C
$GPGSA,A,1,,,,,,,,,,,,,,,,,,,,,,,,,,,,,,,,,,,,,,,,,,,,,,,,,,,,,,*32
$GPRMC,180249,V,0000.0000,S,00000.0000,W,0.0000,0.000,041218,,*3D
$GPGSA,A,1,,,,,,,,,,,,,,,,,,,,,,,,,,,,,,,,,,,,,,,,,,,,,,,,,,,,,,*32
$GPRMC,180250,V,0000.0000,S,00000.0000,W,0.0000,0.000,041218,,*35
$GPGSA,A,1,,,,,,,,,,,,,,,,,,,,,,,,,,,,,,,,,,,,,,,,,,,,,,,,,,,,,,*32
$GPRMC,180251,V,0000.0000,S,00000.0000,W,0.0000,0.000,041218,,*34
$GPGSA,A,1,,,,,,,,,,,,,,,,,,,,,,,,,,,,,,,,,,,,,,,,,,,,,,,,,,,,,,*32
$GPRMC,180252,V,0000.0000,S,00000.0000,W,0.0000,0.000,041218,,*37
$GPGSA,A,1,,,,,,,,,,,,,,,,,,,,,,,,,,,,,,,,,,,,,,,,,,,,,,,,,,,,,,*32
$GPRMC,180253,V,0000.0000,S,00000.0000,W,0.0000,0.000,041218,,*36
$GPGSA,A,1,,,,,,,,,,,,,,,,,,,,,,,,,,,,,,,,,,,,,,,,,,,,,,,,,,,,,,*32
$GPRMC,180254,V,0000.0000,S,00000.0000,W,0.0000,0.000,041218,,*31
$GPGSA,A,1,,,,,,,,,,,,,,,,,,,,,,,,,,,,,,,,,,,,,,,,,,,,,,,,,,,,,,*32
$GPRMC,180255,V,0000.0000,S,00000.0000,W,0.0000,0.000,041218,,*30
$GPGSA,A,1,,,,,,,,,,,,,,,,,,,,,,,,,,,,,,,,,,,,,,,,,,,,,,,,,,,,,,*32
$GPRMC,180256,V,0000.0000,S,00000.0000,W,0.0000,0.000,041218,,*33
$GPGSA,A,1,,,,,,,,,,,,,,,,,,,,,,,,,,,,,,,,,,,,,,,,,,,,,,,,,,,,,,*32
$GPRMC,180257,V,0000.0000,S,00000.0000,W,0.0000,0.000,041218,,*32
$GPGSA,A,1,,,,,,,,,,,,,,,,,,,,,,,,,,,,,,,,,,,,,,,,,,,,,,,,,,,,,,*32
$GPRMC,180258,V,0000.0000,S,00000.0000,W,0.0000,0.000,041218,,*3D
$GPGSA,A,1,,,,,,,,,,,,,,,,,,,,,,,,,,,,,,,,,,,,,,,,,,,,,,,,,,,,,,*32
$GPRMC,180259,V,0000.0000,S,00000.0000,W,0.0000,0.000,041218,,*3C
$GPGSA,A,1,,,,,,,,,,,,,,,,,,,,,,,,,,,,,,,,,,,,,,,,,,,,,,,,,,,,,,*32
$GPRMC,180300,V,0000.0000,S,00000.0000,W,0.0000,0.000,041218,,*31
$GPGSA,A,1,,,,,,,,,,,,,,,,,,,,,,,,,,,,,,,,,,,,,,,,,,,,,,,,,,,,,,*32
$GPRMC,180301,V,0000.0000,S,00000.0000,W,0.0000,0.000,041218,,*30
$GPGSA,A,1,,,,,,,,,,,,,,,,,,,,,,,,,,,,,,,,,,,,,,,,,,,,,,,,,,,,,,*32
$GPRMC,180302,V,0000.0000,S,00000.0000,W,0.0000,0.000,041218,,*33
$GPGSA,A,1,,,,,,,,,,,,,,,,,,,,,,,,,,,,,,,,,,,,,,,,,,,,,,,,,,,,,,*32
$GPRMC,180303,V,0000.0000,S,00000.0000,W,0.0000,0.000,041218,,*32
$GPGSA,A,1,,,,,,,,,,,,,,,,,,,,,,,,,,,,,,,,,,,,,,,,,,,,,,,,,,,,,,*32
$GPRMC,180304,V,0000.0000,S,00000.0000,W,0.0000,0.000,041218,,*35
$GPGSA,A,1,,,,,,,,,,,,,,,,,,,,,,,,,,,,,,,,,,,,,,,,,,,,,,,,,,,,,,*32
$GPRMC,180305,V,0000.0000,S,00000.0000,W,0.0000,0.000,041218,,*34
$GPGSA,A,1,,,,,,,,,,,,,,,,,,,,,,,,,,,,,,,,,,,,,,,,,,,,,,,,,,,,,,*32
$GPRMC,180306,V,0000.0000,S,00000.0000,W,0.0000,0.000,041218,,*37
$GPGSA,A,1,,,,,,,,,,,,,,,,,,,,,,,,,,,,,,,,,,,,,,,,,,,,,,,,,,,,,,*32
$GPRMC,180307,V,0000.0000,S,00000.0000,W,0.0000,0.000,041218,,*36
$GPGSA,A,1,,,,,,,,,,,,,,,,,,,,,,,,,,,,,,,,,,,,,,,,,,,,,,,,,,,,,,*32
$GPRMC,180308,V,0000.0000,S,00000.0000,W,0.0000,0.000,041218,,*39
$GPGSA,A,1,,,,,,,,,,,,,,,,,,,,,,,,,,,,,,,,,,,,,,,,,,,,,,,,,,,,,,*32
$GPRMC,180309,V,0000.0000,S,00000.0000,W,0.0000,0.000,041218,,*38
$GPGSA,A,1,,,,,,,,,,,,,,,,,,,,,,,,,,,,,,,,,,,,,,,,,,,,,,,,,,,,,,*32
$GPRMC,180310,V,0000.0000,S,00000.0000,W,0.0000,0.000,041218,,*30
$GPGSA,A,1,,,,,,,,,,,,,,,,,,,,,,,,,,,,,,,,,,,,,,,,,,,,,,,,,,,,,,*32
$GPRMC,180311,V,0000.0000,S,00000.0000,W,0.0000,0.000,041218,,*31
$GPGSA,A,1,,,,,,,,,,,,,,,,,,,,,,,,,,,,,,,,,,,,,,,,,,,,,,,,,,,,,,*32
$GPRMC,180312,V,0000.0000,S,00000.0000,W,0.0000,0.000,041218,,*32
$GPGSA,A,1,,,,,,,,,,,,,,,,,,,,,,,,,,,,,,,,,,,,,,,,,,,,,,,,,,,,,,*32
$GPRMC,180312,V,0000.0000,S,00000.0000,W,0.0000,0.000,041218,,*32
$GPGSA,A,1,,,,,,,,,,,,,,,,,,,,,,,,,,,,,,,,,,,,,,,,,,,,,,,,,,,,,,*32
$GPRMC,180313,V,0000.0000,S,00000.0000,W,0.0000,0.000,041218,,*33
$GPGSA,A,1,,,,,,,,,,,,,,,,,,,,,,,,,,,,,,,,,,,,,,,,,,,,,,,,,,,,,,*32
$GPRMC,180314,V,0000.0000,S,00000.0000,W,0.0000,0.000,041218,,*34
$GPGSA,A,1,,,,,,,,,,,,,,,,,,,,,,,,,,,,,,,,,,,,,,,,,,,,,,,,,,,,,,*32
$GPRMC,180315,V,0000.0000,S,00000.0000,W,0.0000,0.000,041218,,*35
$GPGSA,A,1,,,,,,,,,,,,,,,,,,,,,,,,,,,,,,,,,,,,,,,,,,,,,,,,,,,,,,*32
$GPRMC,180316,V,0000.0000,S,00000.0000,W,0.0000,0.000,041218,,*36
$GPGSA,A,1,,,,,,,,,,,,,,,,,,,,,,,,,,,,,,,,,,,,,,,,,,,,,,,,,,,,,,*32
$GPRMC,180317,V,0000.0000,S,00000.0000,W,0.0000,0.000,041218,,*37
$GPGSA,A,1,,,,,,,,,,,,,,,,,,,,,,,,,,,,,,,,,,,,,,,,,,,,,,,,,,,,,,*32
$GPRMC,180318,V,0000.0000,S,00000.0000,W,0.0000,0.000,041218,,*38
$GPGSA,A,1,,,,,,,,,,,,,,,,,,,,,,,,,,,,,,,,,,,,,,,,,,,,,,,,,,,,,,*32
$GPRMC,180319,V,0000.0000,S,00000.0000,W,0.0000,0.000,041218,,*39
$GPGSA,A,1,,,,,,,,,,,,,,,,,,,,,,,,,,,,,,,,,,,,,,,,,,,,,,,,,,,,,,*32
$GPRMC,180320,V,0000.0000,S,00000.0000,W,0.0000,0.000,041218,,*33
$GPGSA,A,1,,,,,,,,,,,,,,,,,,,,,,,,,,,,,,,,,,,,,,,,,,,,,,,,,,,,,,*32
$GPRMC,180321,V,0000.0000,S,00000.0000,W,0.0000,0.000,041218,,*32
$GPGSA,A,1,,,,,,,,,,,,,,,,,,,,,,,,,,,,,,,,,,,,,,,,,,,,,,,,,,,,,,*32
$GPRMC,180322,V,0000.0000,S,00000.0000,W,0.0000,0.000,041218,,*31
$GPGSA,A,1,,,,,,,,,,,,,,,,,,,,,,,,,,,,,,,,,,,,,,,,,,,,,,,,,,,,,,*32
$GPRMC,180323,V,0000.0000,S,00000.0000,W,0.0000,0.000,041218,,*30
$GPGSA,A,1,,,,,,,,,,,,,,,,,,,,,,,,,,,,,,,,,,,,,,,,,,,,,,,,,,,,,,*32
$GPRMC,180324,V,0000.0000,S,00000.0000,W,0.0000,0.000,041218,,*37
$GPGSA,A,1,,,,,,,,,,,,,,,,,,,,,,,,,,,,,,,,,,,,,,,,,,,,,,,,,,,,,,*32
$GPRMC,180325,V,0000.0000,S,00000.0000,W,0.0000,0.000,041218,,*36
$GPGSA,A,1,,,,,,,,,,,,,,,,,,,,,,,,,,,,,,,,,,,,,,,,,,,,,,,,,,,,,,*32
$GPRMC,180326,V,0000.0000,S,00000.0000,W,0.0000,0.000,041218,,*35
$GPGSA,A,1,,,,,,,,,,,,,,,,,,,,,,,,,,,,,,,,,,,,,,,,,,,,,,,,,,,,,,*32
$GPRMC,180327,V,0000.0000,S,00000.0000,W,0.0000,0.000,041218,,*34
$GPGSA,A,1,,,,,,,,,,,,,,,,,,,,,,,,,,,,,,,,,,,,,,,,,,,,,,,,,,,,,,*32
$GPRMC,180328,V,0000.0000,S,00000.0000,W,0.0000,0.000,041218,,*3B
$GPGSA,A,1,,,,,,,,,,,,,,,,,,,,,,,,,,,,,,,,,,,,,,,,,,,,,,,,,,,,,,*32
$GPRMC,180329,V,0000.0000,S,00000.0000,W,0.0000,0.000,041218,,*3A
$GPGSA,A,1,,,,,,,,,,,,,,,,,,,,,,,,,,,,,,,,,,,,,,,,,,,,,,,,,,,,,,*32
$GPRMC,180330,V,4349.1536,N,01804.6806,W,0.0000,0.000,041218,,*21
$GPGSA,A,1,,,,,,,,,,,,,,,,,,,,,,,,,,,,,,,,,,,,,,,,,,,,,,,,,,,,,,*32
$GPRMC,180331,V,4400.1665,N,01832.8982,W,0.0000,0.000,041218,,*29
$GPGSA,A,1,,,,,,,,,,,,,,,,,,,,,,,,,,,,,,,,,,,,,,,,,,,,,,,,,,,,,,*32
$GPRMC,180332,V,4400.1176,N,01832.5155,W,0.0000,0.000,041218,,*20
$GPGSA,A,1,,,,,,,,,,,,,,,,,,,,,,,,,,,,,,,,,,,,,,,,,,,,,,,,,,,,,,*32
$GPRMC,180333,V,4354.6321,N,01818.0586,W,0.0000,0.000,041218,,*27
$GPGSA,A,1,,,,,,,,,,,,,,,,,,,,,,,,,,,,,,,,,,,,,,,,,,,,,,,,,,,,,,*32
$GPRMC,180334,V,4405.2548,N,01845.4009,W,0.0000,0.000,041218,,*20
$GPGSA,A,1,,,,,,,,,,,,,,,,,,,,,,,,,,,,,,,,,,,,,,,,,,,,,,,,,,,,,,*32
$GPRMC,180335,V,4359.9706,N,01831.3673,W,0.0000,0.000,041218,,*23
$GPGSA,A,1,,,,,,,,,,,,,,,,,,,,,,,,,,,,,,,,,,,,,,,,,,,,,,,,,,,,,,*32
$GPRMC,180336,V,4348.8011,N,01802.4068,W,0.0000,0.000,041218,,*2B
$GPGSA,A,1,,,,,,,,,,,,,,,,,,,,,,,,,,,,,,,,,,,,,,,,,,,,,,,,,,,,,,*32
$GPRMC,180337,V,4354.4165,N,01816.5351,W,0.0000,0.000,041218,,*24
$GPGSA,A,1,,,,,,,,,,,,,,,,,,,,,,,,,,,,,,,,,,,,,,,,,,,,,,,,,,,,,,*32
$GPZDA,180338.00,04,12,2018,00,00*6B
$GPGGA,180337,5004.0905,N,01954.4358,E,1,04,99.99,272.17,M,41.913,M,,*79
$GPRMC,180337,A,5004.0905,N,01954.4358,E,2.2983,16.009,041218,,*1F
$GPGSA,A,3,,,,,,,,,,,,,,,,,,,,,,,,,,,,,,,,,,,,,,,,,,,,,,,,,,,100.0,100.0,100.0*33
$GPZDA,180339.00,04,12,2018,00,00*6A
$GPGGA,180339,5004.0003,N,01954.5323,E,1,04,35.86,-330.46,M,41.916,M,,*56
$GPRMC,180339,A,5004.0003,N,01954.5323,E,1.5308,61.304,041218,,*10
$GPGSA,A,3,,,,,,,,,,,,,,,,,,,,,,,,,,,,,,,,,,,,,,,,,,,,,,,,,,,100.0,35.9,100.0*0D
$GPZDA,180340.00,04,12,2018,00,00*64
$GPGGA,180340,5004.4064,N,01954.0929,E,1,04,35.75,2452.11,M,41.906,M,,*4B
$GPRMC,180340,A,5004.4064,N,01954.0929,E,1.3524,53.837,041218,,*1A
$GPGSA,A,3,,,,,,,,,,,,,,,,,,,,,,,,,,,,,,,,,,,,,,,,,,,,,,,,,,,100.0,35.8,100.0*0C
$GPRMC,180341,A,5004.4066,N,01954.0933,E,1.3524,53.837,041218,,*12
$GPGSA,A,1,,,,,,,,,,,,,,,,,,,,,,,,,,,,,,,,,,,,,,,,,,,,,,,,,,,,,,*32
$GPZDA,180342.00,04,12,2018,00,00*66
$GPGGA,180342,5004.5275,N,01953.9613,E,1,04,99.99,3286.13,M,41.903,M,,*4F
$GPRMC,180342,A,5004.5275,N,01953.9613,E,1.7327,106.318,041218,,*25
$GPGSA,A,3,,,,,,,,,,,,,,,,,,,,,,,,,,,,,,,,,,,,,,,,,,,,,,,,,,,100.0,100.0,100.0*33
$GPZDA,180343.00,04,12,2018,00,00*67
$GPGGA,180343,5004.4392,N,01954.0581,E,1,04,35.39,2679.33,M,41.905,M,,*4C
$GPRMC,180343,A,5004.4392,N,01954.0581,E,3.5634,93.715,041218,,*18
$GPGSA,A,3,,,,,,,,,,,,,,,,,,,,,,,,,,,,,,,,,,,,,,,,,,,,,,,,,,,100.0,35.4,100.0*00
$GPZDA,180344.00,04,12,2018,00,00*60
$GPGGA,180344,5004.4606,N,01954.0370,E,1,04,35.27,2825.63,M,41.905,M,,*46
$GPRMC,180344,A,5004.4606,N,01954.0370,E,5.6832,80.318,041218,,*19
$GPGSA,A,3,,,,,,,,,,,,,,,,,,,,,,,,,,,,,,,,,,,,,,,,,,,,,,,,,,,100.0,35.3,100.0*07
$GPZDA,180345.00,04,12,2018,00,00*61
$GPGGA,180345,5004.4127,N,01954.0886,E,1,04,35.16,2499.51,M,41.906,M,,*4A
$GPRMC,180345,A,5004.4127,N,01954.0886,E,3.8715,99.471,041218,,*1C
$GPGSA,A,3,,,,,,,,,,,,,,,,,,,,,,,,,,,,,,,,,,,,,,,,,,,,,,,,,,,100.0,35.2,100.0*06
$GPZDA,180346.00,04,12,2018,00,00*62
$GPGGA,180346,5004.3805,N,01954.1245,E,1,04,35.05,2281.53,M,41.906,M,,*4C
$GPRMC,180346,A,5004.3805,N,01954.1245,E,5.7431,104.960,041218,,*21
$GPGSA,A,3,,,,,,,,,,,,,,,,,,,,,,,,,,,,,,,,,,,,,,,,,,,,,,,,,,,100.0,35.0,100.0*04
$GPZDA,180347.00,04,12,2018,00,00*63
$GPGGA,180347,5004.3791,N,01954.1291,E,1,04,34.94,2271.01,M,41.906,M,,*47
$GPRMC,180347,A,5004.3791,N,01954.1291,E,8.3753,91.956,041218,,*1D
$GPGSA,A,3,,,,,,,,,,,,,,,,,,,,,,,,,,,,,,,,,,,,,,,,,,,,,,,,,,,100.0,34.9,100.0*0C
$GPZDA,180348.00,04,12,2018,00,00*6C
$GPGGA,180348,5004.3917,N,01954.1175,E,1,04,34.83,2355.37,M,41.906,M,,*45
$GPRMC,180348,A,5004.3917,N,01954.1175,E,6.0551,86.905,041218,,*16
$GPGSA,A,3,,,,,,,,,,,,,,,,,,,,,,,,,,,,,,,,,,,,,,,,,,,,,,,,,,,100.0,34.8,100.0*0D
$GPZDA,180349.00,04,12,2018,00,00*6D
$GPGGA,180349,5004.3863,N,01954.1260,E,1,04,34.72,2314.41,M,41.906,M,,*4B
$GPRMC,180349,A,5004.3863,N,01954.1260,E,6.5363,74.565,041218,,*17
$GPGSA,A,3,,,,,,,,,,,,,,,,,,,,,,,,,,,,,,,,,,,,,,,,,,,,,,,,,,,100.0,34.7,100.0*02
$GPZDA,180350.00,04,12,2018,00,00*65
$GPGGA,180350,5004.4612,N,01954.0446,E,1,04,34.61,2832.72,M,41.904,M,,*40
$GPRMC,180350,A,5004.4612,N,01954.0446,E,2.8780,90.058,041218,,*12
$GPGSA,A,3,,,,,,,,,,,,,,,,,,,,,,,,,,,,,,,,,,,,,,,,,,,,,,,,,,,100.0,34.6,100.0*03
$GPZDA,180351.00,04,12,2018,00,00*64
$GPGGA,180351,5004.3853,N,01954.1301,E,1,04,34.50,2307.83,M,41.906,M,,*4B
$GPRMC,180351,A,5004.3853,N,01954.1301,E,6.8328,84.102,041218,,*13
$GPGSA,A,3,,,,,,,,,,,,,,,,,,,,,,,,,,,,,,,,,,,,,,,,,,,,,,,,,,,100.0,34.5,100.0*00
$GPZDA,180352.00,04,12,2018,00,00*67
$GPGGA,180352,5004.3419,N,01954.1764,E,1,04,34.39,2013.64,M,41.907,M,,*4C
$GPRMC,180352,A,5004.3419,N,01954.1764,E,5.1592,93.410,041218,,*18
$GPGSA,A,3,,,,,,,,,,,,,,,,,,,,,,,,,,,,,,,,,,,,,,,,,,,,,,,,,,,100.0,34.4,100.0*01
$GPZDA,180353.00,04,12,2018,00,00*66
$GPGGA,180353,5004.3542,N,01954.1609,E,1,04,34.28,2103.70,M,41.907,M,,*4D
$GPRMC,180353,A,5004.3542,N,01954.1609,E,1.9502,133.218,041218,,*2C
$GPGSA,A,3,,,,,,,,,,,,,,,,,,,,,,,,,,,,,,,,,,,,,,,,,,,,,,,,,,,100.0,34.3,100.0*06
$GPZDA,180354.00,04,12,2018,00,00*61
$GPGGA,180354,5004.3731,N,01954.1403,E,1,04,34.18,2231.65,M,41.907,M,,*41
$GPRMC,180354,A,5004.3731,N,01954.1403,E,1.2076,12.003,041218,,*12
$GPGSA,A,3,,,,,,,,,,,,,,,,,,,,,,,,,,,,,,,,,,,,,,,,,,,,,,,,,,,100.0,34.2,100.0*07
$GPZDA,180355.00,04,12,2018,00,00*60
$GPGGA,180355,5004.4003,N,01954.1088,E,1,04,34.07,2419.69,M,41.906,M,,*49
$GPRMC,180355,A,5004.4003,N,01954.1088,E,0.6402,337.358,041218,,*2E
$GPGSA,A,3,,,,,,,,,,,,,,,,,,,,,,,,,,,,,,,,,,,,,,,,,,,,,,,,,,,100.0,34.1,100.0*04
$GPZDA,180356.00,04,12,2018,00,00*63
$GPGGA,180356,5004.4215,N,01954.0858,E,1,04,33.97,2562.18,M,41.905,M,,*4D
$GPRMC,180356,A,5004.4215,N,01954.0858,E,1.5639,14.074,041218,,*1B
$GPGSA,A,3,,,,,,,,,,,,,,,,,,,,,,,,,,,,,,,,,,,,,,,,,,,,,,,,,,,100.0,34.0,100.0*05
$GPZDA,180357.00,04,12,2018,00,00*62
$GPGGA,180357,5004.3955,N,01954.1142,E,1,04,33.86,2380.22,M,41.906,M,,*47
$GPRMC,180357,A,5004.3955,N,01954.1142,E,0.9929,345.703,041218,,*22
$GPGSA,A,3,,,,,,,,,,,,,,,,,,,,,,,,,,,,,,,,,,,,,,,,,,,,,,,,,,,100.0,33.9,100.0*0B
$GPZDA,180358.00,04,12,2018,00,00*6D
$GPGGA,180358,5004.3372,N,01954.1778,E,1,04,33.75,1983.80,M,41.907,M,,*47
$GPRMC,180358,A,5004.3372,N,01954.1778,E,1.5648,141.013,041218,,*28
$GPGSA,A,3,,,,,,,,,,,,,,,,,,,,,,,,,,,,,,,,,,,,,,,,,,,,,,,,,,,100.0,33.8,100.0*0A
$GPZDA,180359.00,04,12,2018,00,00*6C
$GPGGA,180359,5004.0760,N,01954.4576,E,1,03,33.65,190.76,M,41.914,M,,*7D
$GPRMC,180359,A,5004.0760,N,01954.4576,E,1.1705,119.840,041218,,*2B
$GPGSA,A,2,,,,,,,,,,,,,,,,,,,,,,,,,,,,,,,,,,,,,,,,,,,,,,,,,,,100.0,33.6,100.0*05
$GPZDA,180400.00,04,12,2018,00,00*67
$GPGGA,180400,5004.0761,N,01954.4580,E,1,03,18.46,189.85,M,41.914,M,,*72
$GPRMC,180400,A,5004.0761,N,01954.4580,E,1.3693,83.964,041218,,*11
$GPGSA,A,2,,,,,,,,,,,,,,,,,,,,,,,,,,,,,,,,,,,,,,,,,,,,,,,,,,,18.5,18.5,1.0*32
$GPZDA,180401.00,04,12,2018,00,00*66
$GPGGA,180401,5004.0764,N,01954.4577,E,1,03,18.49,188.61,M,41.914,M,,*7A
$GPRMC,180401,A,5004.0764,N,01954.4577,E,0.6722,325.315,041218,,*21
$GPGSA,A,2,,,,,,,,,,,,,,,,,,,,,,,,,,,,,,,,,,,,,,,,,,,,,,,,,,,18.5,18.5,1.0*32
$GPZDA,180402.00,04,12,2018,00,00*65
$GPGGA,180402,5004.0770,N,01954.4565,E,1,03,18.50,187.06,M,41.914,M,,*79
$GPRMC,180402,A,5004.0770,N,01954.4565,E,1.1339,340.167,041218,,*28
$GPGSA,A,2,,,,,,,,,,,,,,,,,,,,,,,,,,,,,,,,,,,,,,,,,,,,,,,,,,,18.5,18.5,1.0*32
$GPZDA,180403.00,04,12,2018,00,00*64
$GPGGA,180403,5004.0771,N,01954.4572,E,1,03,18.52,188.64,M,41.914,M,,*76
$GPRMC,180403,A,5004.0771,N,01954.4572,E,1.3139,340.296,041218,,*23
$GPGSA,A,2,,,,,,,,,,,,,,,,,,,,,,,,,,,,,,,,,,,,,,,,,,,,,,,,,,,18.6,18.5,1.0*31
$GPZDA,180404.00,04,12,2018,00,00*63
$GPGGA,180404,5004.0766,N,01954.4595,E,1,03,18.54,190.41,M,41.914,M,,*76
$GPRMC,180404,A,5004.0766,N,01954.4595,E,1.6168,340.190,041218,,*2F
$GPGSA,A,2,,,,,,,,,,,,,,,,,,,,,,,,,,,,,,,,,,,,,,,,,,,,,,,,,,,18.6,18.5,1.0*31
$GPZDA,180405.00,04,12,2018,00,00*62
$GPGGA,180405,5004.0733,N,01954.4608,E,1,03,3.24,191.42,M,41.914,M,,*4F
$GPRMC,180405,A,5004.0733,N,01954.4608,E,0.8669,146.061,041218,,*2B
$GPGSA,A,2,,,,,,,,,,,,,,,,,,,,,,,,,,,,,,,,,,,,,,,,,,,,,,,,,,,3.4,3.2,1.0*34
$GPZDA,180406.00,04,12,2018,00,00*61
$GPGGA,180406,5004.0740,N,01954.4605,E,1,03,3.24,192.21,M,41.914,M,,*43
$GPRMC,180406,A,5004.0740,N,01954.4605,E,0.9188,322.152,041218,,*29
$GPGSA,A,2,,,,,,,,,,,,,,,,,,,,,,,,,,,,,,,,,,,,,,,,,,,,,,,,,,,3.4,3.2,1.0*34
$GPZDA,180407.00,04,12,2018,00,00*60
$GPGGA,180407,5004.0708,N,01954.4597,E,1,03,3.24,191.09,M,41.914,M,,*4F
$GPRMC,180407,A,5004.0708,N,01954.4597,E,0.9969,203.614,041218,,*2C
$GPGSA,A,2,,,,,,,,,,,,,,,,,,,,,,,,,,,,,,,,,,,,,,,,,,,,,,,,,,,3.4,3.2,1.0*34
$GPZDA,180408.00,04,12,2018,00,00*6F
$GPGGA,180408,5004.0730,N,01954.4586,E,1,03,3.24,194.59,M,41.914,M,,*4B
$GPRMC,180408,A,5004.0730,N,01954.4586,E,3.4053,342.166,041218,,*20
$GPGSA,A,2,,,,,,,,,,,,,,,,,,,,,,,,,,,,,,,,,,,,,,,,,,,,,,,,,,,3.4,3.2,1.0*34
$GPZDA,180409.00,04,12,2018,00,00*6E
$GPGGA,180409,5004.0707,N,01954.4563,E,1,04,3.24,208.76,M,41.914,M,,*49
$GPRMC,180409,A,5004.0707,N,01954.4563,E,3.9843,352.518,041218,,*26
$GPGSA,A,3,,,,,,,,,,,,,,,,,,,,,,,,,,,,,,,,,,,,,,,,,,,,,,,,,,,3.4,3.2,1.0*35
$GPZDA,180410.00,04,12,2018,00,00*66
$GPGGA,180410,5004.0661,N,01954.4569,E,1,04,32.56,212.96,M,41.914,M,,*78
$GPRMC,180410,A,5004.0661,N,01954.4569,E,1.3502,105.298,041218,,*2A
$GPGSA,A,3,,,,,,,,,,,,,,,,,,,,,,,,,,,,,,,,,,,,,,,,,,,,,,,,,,,100.0,32.6,100.0*05
$GPZDA,180411.00,04,12,2018,00,00*67
$GPGGA,180411,5004.0641,N,01954.4574,E,1,04,32.46,221.27,M,41.914,M,,*7C
$GPRMC,180411,A,5004.0641,N,01954.4574,E,1.5115,154.289,041218,,*25
$GPGSA,A,3,,,,,,,,,,,,,,,,,,,,,,,,,,,,,,,,,,,,,,,,,,,,,,,,,,,100.0,32.5,100.0*06
$GPZDA,180412.00,04,12,2018,00,00*64
$GPGGA,180412,5004.0625,N,01954.4558,E,1,04,32.36,225.18,M,41.914,M,,*7C
$GPRMC,180412,A,5004.0625,N,01954.4558,E,1.7279,208.225,041218,,*2D
$GPGSA,A,3,,,,,,,,,,,,,,,,,,,,,,,,,,,,,,,,,,,,,,,,,,,,,,,,,,,100.0,32.4,100.0*07
$GPZDA,180413.00,04,12,2018,00,00*65
$GPGGA,180413,5004.0610,N,01954.4550,E,1,04,32.26,226.62,M,41.914,M,,*7C
$GPRMC,180413,A,5004.0610,N,01954.4550,E,3.1739,208.582,041218,,*2D
$GPGSA,A,3,,,,,,,,,,,,,,,,,,,,,,,,,,,,,,,,,,,,,,,,,,,,,,,,,,,100.0,32.3,100.0*00
$GPZDA,180414.00,04,12,2018,00,00*62
$GPGGA,180414,5004.0624,N,01954.4535,E,1,04,32.17,228.41,M,41.914,M,,*72
$GPRMC,180414,A,5004.0624,N,01954.4535,E,1.9671,314.912,041218,,*20
$GPGSA,A,3,,,,,,,,,,,,,,,,,,,,,,,,,,,,,,,,,,,,,,,,,,,,,,,,,,,100.0,32.2,100.0*01
$GPZDA,180415.00,04,12,2018,00,00*63
$GPGGA,180415,5004.0629,N,01954.4555,E,1,04,32.07,224.88,M,41.914,M,,*70
$GPRMC,180415,A,5004.0629,N,01954.4555,E,0.9719,295.492,041218,,*29
$GPGSA,A,3,,,,,,,,,,,,,,,,,,,,,,,,,,,,,,,,,,,,,,,,,,,,,,,,,,,100.0,32.1,100.0*02
$GPZDA,180416.00,04,12,2018,00,00*60
$GPGGA,180416,5004.0641,N,01954.4564,E,1,04,31.98,222.38,M,41.914,M,,*77
$GPRMC,180416,A,5004.0641,N,01954.4564,E,1.7409,338.923,041218,,*2A
$GPGSA,A,3,,,,,,,,,,,,,,,,,,,,,,,,,,,,,,,,,,,,,,,,,,,,,,,,,,,100.0,32.0,100.0*03
$GPZDA,180417.00,04,12,2018,00,00*61
$GPGGA,180417,5004.0676,N,01954.4562,E,1,04,31.88,221.28,M,41.914,M,,*77
$GPRMC,180417,A,5004.0676,N,01954.4562,E,8.0420,15.380,041218,,*13
$GPGSA,A,3,,,,,,,,,,,,,,,,,,,,,,,,,,,,,,,,,,,,,,,,,,,,,,,,,,,100.0,31.9,100.0*09
$GPZDA,180418.00,04,12,2018,00,00*6E
$GPGGA,180418,5004.0696,N,01954.4567,E,1,04,31.79,219.03,M,41.914,M,,*7F
$GPRMC,180418,A,5004.0696,N,01954.4567,E,6.5104,359.665,041218,,*2A
$GPGSA,A,3,,,,,,,,,,,,,,,,,,,,,,,,,,,,,,,,,,,,,,,,,,,,,,,,,,,100.0,31.8,100.0*08
$GPZDA,180419.00,04,12,2018,00,00*6F
$GPGGA,180419,5004.0722,N,01954.4567,E,1,04,31.69,217.50,M,41.914,M,,*79
$GPRMC,180419,A,5004.0722,N,01954.4567,E,6.6455,354.594,041218,,*27
$GPGSA,A,3,,,,,,,,,,,,,,,,,,,,,,,,,,,,,,,,,,,,,,,,,,,,,,,,,,,100.0,31.7,100.0*07
$GPZDA,180420.00,04,12,2018,00,00*65
$GPGGA,180420,5004.0743,N,01954.4569,E,1,04,31.60,216.40,M,41.914,M,,*73
$GPRMC,180420,A,5004.0743,N,01954.4569,E,5.5555,346.845,041218,,*27
$GPGSA,A,3,,,,,,,,,,,,,,,,,,,,,,,,,,,,,,,,,,,,,,,,,,,,,,,,,,,100.0,31.6,100.0*06
$GPZDA,180421.00,04,12,2018,00,00*64
$GPGGA,180421,5004.0730,N,01954.4586,E,1,04,31.51,213.42,M,41.914,M,,*72
$GPRMC,180421,A,5004.0730,N,01954.4586,E,1.0042,326.413,041218,,*28
$GPGSA,A,3,,,,,,,,,,,,,,,,,,,,,,,,,,,,,,,,,,,,,,,,,,,,,,,,,,,100.0,31.5,100.0*05
$GPZDA,180422.00,04,12,2018,00,00*67
$GPGGA,180422,5004.0726,N,01954.4589,E,1,04,31.42,211.03,M,41.914,M,,*7C
$GPRMC,180422,A,5004.0726,N,01954.4589,E,0.7915,324.405,041218,,*2B
$GPGSA,A,3,,,,,,,,,,,,,,,,,,,,,,,,,,,,,,,,,,,,,,,,,,,,,,,,,,,100.0,31.4,100.0*04
$GPZDA,180423.00,04,12,2018,00,00*66
$GPGGA,180423,5004.0721,N,01954.4601,E,1,04,31.32,210.13,M,41.914,M,,*7E
$GPRMC,180423,A,5004.0721,N,01954.4601,E,0.4558,192.785,041218,,*2C
$GPGSA,A,3,,,,,,,,,,,,,,,,,,,,,,,,,,,,,,,,,,,,,,,,,,,,,,,,,,,100.0,31.3,100.0*03
$GPZDA,180424.00,04,12,2018,00,00*61
$GPGGA,180424,5004.0703,N,01954.4611,E,1,04,31.23,209.76,M,41.914,M,,*73
$GPRMC,180424,A,5004.0703,N,01954.4611,E,3.3882,185.399,041218,,*2B
$GPGSA,A,3,,,,,,,,,,,,,,,,,,,,,,,,,,,,,,,,,,,,,,,,,,,,,,,,,,,100.0,31.2,100.0*02
$GPGSV,3,1,09,13,-91,000,32,15,61,244,23,17,-91,000,27,19,-91,000,20*5D
$GPGSV,3,2,09,24,46,288,16,28,-91,000,21,74,60,042,18,75,49,282,17*57
$GPGSV,3,3,09,255,-91,000,21*54
$GPZDA,180425.00,04,12,2018,00,00*60
$GPGGA,180425,5004.0704,N,01954.4614,E,1,04,31.14,207.61,M,41.914,M,,*7C
$GPRMC,180425,A,5004.0704,N,01954.4614,E,2.4137,131.295,041218,,*2B
$GPGSA,A,3,15,24,74,75,,,,,,,,,,,,,,,,,,,,,,,,,,,,,,,,,,,,,,,,,,,,,,,100.0,31.1,100.0*02
$GPZDA,180426.00,04,12,2018,00,00*63
$GPGGA,180426,5004.0691,N,01954.4617,E,1,04,31.05,205.51,M,41.914,M,,*70
$GPRMC,180426,A,5004.0691,N,01954.4617,E,2.9077,140.174,041218,,*24
$GPGSA,A,3,15,24,74,75,,,,,,,,,,,,,,,,,,,,,,,,,,,,,,,,,,,,,,,,,,,,,,,100.0,31.1,100.0*02
$GPZDA,180427.00,04,12,2018,00,00*62
$GPGGA,180427,5004.0682,N,01954.4630,E,1,03,30.96,202.49,M,41.914,M,,*74
$GPRMC,180427,A,5004.0682,N,01954.4630,E,2.9378,150.148,041218,,*20
$GPGSA,A,2,15,24,74,75,,,,,,,,,,,,,,,,,,,,,,,,,,,,,,,,,,,,,,,,,,,,,,,100.0,31.0,100.0*02
$GPZDA,180428.00,04,12,2018,00,00*6D
$GPGGA,180428,5004.0679,N,01954.4626,E,1,03,19.03,197.13,M,41.914,M,,*7F
$GPRMC,180428,A,5004.0679,N,01954.4626,E,2.6540,147.512,041218,,*23
$GPGSA,A,2,15,24,74,75,,,,,,,,,,,,,,,,,,,,,,,,,,,,,,,,,,,,,,,,,,,,,,,19.1,19.0,1.0*30
$GPZDA,180429.00,04,12,2018,00,00*6C
$GPGGA,180429,5004.0675,N,01954.4622,E,1,03,19.05,193.35,M,41.914,M,,*70
$GPRMC,180429,A,5004.0675,N,01954.4622,E,2.6362,139.295,041218,,*2D
$GPGSA,A,2,15,24,74,75,,,,,,,,,,,,,,,,,,,,,,,,,,,,,,,,,,,,,,,,,,,,,,,19.1,19.1,1.0*31
$GPZDA,180430.00,04,12,2018,00,00*64
$GPGGA,180430,5004.0669,N,01954.4605,E,1,03,19.07,190.64,M,41.914,M,,*75
$GPRMC,180430,A,5004.0669,N,01954.4605,E,2.2882,190.565,041218,,*27
$GPGSA,A,2,15,24,74,75,,,,,,,,,,,,,,,,,,,,,,,,,,,,,,,,,,,,,,,,,,,,,,,19.1,19.1,1.0*31
$GPRMC,180431,A,5004.0663,N,01954.4603,E,2.2882,190.565,041218,,*2A
$GPGSA,A,1,15,24,74,75,,,,,,,,,,,,,,,,,,,,,,,,,,,,,,,,,,,,,,,,,,,,,,,,,,*31
$GPZDA,180432.00,04,12,2018,00,00*66
$GPGGA,180432,5004.0655,N,01954.4614,E,1,03,99.99,190.15,M,41.914,M,,*71
$GPRMC,180432,A,5004.0655,N,01954.4614,E,1.7354,149.273,041218,,*28
$GPGSA,A,2,15,24,74,75,,,,,,,,,,,,,,,,,,,,,,,,,,,,,,,,,,,,,,,,,,,,,,,100.0,100.0,100.0*31
$GPZDA,180433.00,04,12,2018,00,00*67
$GPGGA,180433,5004.0638,N,01954.4640,E,1,03,3.70,189.98,M,41.914,M,,*43
$GPRMC,180433,A,5004.0638,N,01954.4640,E,3.4691,116.470,041218,,*21
$GPGSA,A,2,15,24,74,75,,,,,,,,,,,,,,,,,,,,,,,,,,,,,,,,,,,,,,,,,,,,,,,3.8,3.7,1.0*3E
$GPZDA,180434.00,04,12,2018,00,00*60
$GPGGA,180434,5004.0618,N,01954.4683,E,1,03,3.70,191.63,M,41.914,M,,*44
$GPRMC,180434,A,5004.0618,N,01954.4683,E,5.1183,112.748,041218,,*20
$GPGSA,A,2,15,24,74,75,,,,,,,,,,,,,,,,,,,,,,,,,,,,,,,,,,,,,,,,,,,,,,,3.8,3.7,1.0*3E
$GPGSV,3,1,09,13,-91,000,21,15,61,244,18,17,-91,000,26,19,-91,000,14*51
$GPGSV,3,2,09,24,47,288,20,28,-91,000,25,74,60,042,21,75,50,283,11*52
$GPGSV,3,3,09,255,-91,000,21*54
$GPRMC,180435,A,5004.0612,N,01954.4703,E,5.1183,112.748,041218,,*22
$GPGSA,A,1,15,74,75,,,,,,,,,,,,,,,,,,,,,,,,,,,,,,,,,,,,,,,,,,,,,,,,,,,*37
$GPZDA,180436.00,04,12,2018,00,00*62
$GPGGA,180436,5004.0594,N,01954.4701,E,1,03,99.99,190.45,M,41.914,M,,*7B
$GPRMC,180436,A,5004.0594,N,01954.4701,E,3.4930,161.166,041218,,*23
$GPGSA,A,2,15,74,75,,,,,,,,,,,,,,,,,,,,,,,,,,,,,,,,,,,,,,,,,,,,,,,,100.0,100.0,100.0*37
$GPZDA,180437.00,04,12,2018,00,00*63
$GPGGA,180437,5004.0605,N,01954.4701,E,1,03,3.22,190.40,M,41.914,M,,*47
$GPRMC,180437,A,5004.0605,N,01954.4701,E,1.8516,140.787,041218,,*25
$GPGSA,A,2,15,74,75,,,,,,,,,,,,,,,,,,,,,,,,,,,,,,,,,,,,,,,,,,,,,,,,3.4,3.2,1.0*31
$GPZDA,180438.00,04,12,2018,00,00*6C
$GPGGA,180438,5004.0589,N,01954.4729,E,1,03,3.22,187.40,M,41.914,M,,*43
$GPRMC,180438,A,5004.0589,N,01954.4729,E,3.3181,130.542,041218,,*28
$GPGSA,A,2,15,74,75,,,,,,,,,,,,,,,,,,,,,,,,,,,,,,,,,,,,,,,,,,,,,,,,3.4,3.2,1.0*31
$GPZDA,180439.00,04,12,2018,00,00*6D
$GPGGA,180439,5004.0621,N,01954.4714,E,1,03,3.22,187.87,M,41.914,M,,*46
$GPRMC,180439,A,5004.0621,N,01954.4714,E,2.0923,47.654,041218,,*11
$GPGSA,A,2,15,74,75,,,,,,,,,,,,,,,,,,,,,,,,,,,,,,,,,,,,,,,,,,,,,,,,3.4,3.2,1.0*31
$GPZDA,180440.00,04,12,2018,00,00*63
$GPGGA,180440,5004.0627,N,01954.4703,E,1,03,3.22,187.88,M,41.914,M,,*47
$GPRMC,180440,A,5004.0627,N,01954.4703,E,0.8442,293.484,041218,,*2B
$GPGSA,A,2,15,74,75,,,,,,,,,,,,,,,,,,,,,,,,,,,,,,,,,,,,,,,,,,,,,,,,3.4,3.2,1.0*31
$GPZDA,180441.00,04,12,2018,00,00*62
$GPGGA,180441,5004.0606,N,01954.4703,E,1,03,3.22,186.45,M,41.914,M,,*45
$GPRMC,180441,A,5004.0606,N,01954.4703,E,2.4872,208.502,041218,,*25
$GPGSA,A,2,15,74,75,,,,,,,,,,,,,,,,,,,,,,,,,,,,,,,,,,,,,,,,,,,,,,,,3.4,3.2,1.0*31
$GPZDA,180442.00,04,12,2018,00,00*61
$GPGGA,180442,5004.0588,N,01954.4723,E,1,03,3.22,187.18,M,41.914,M,,*48
$GPRMC,180442,A,5004.0588,N,01954.4723,E,2.9262,176.917,041218,,*25
$GPGSA,A,2,15,74,75,,,,,,,,,,,,,,,,,,,,,,,,,,,,,,,,,,,,,,,,,,,,,,,,3.4,3.2,1.0*31
$GPZDA,180443.00,04,12,2018,00,00*60
$GPGGA,180443,5004.0581,N,01954.4721,E,1,03,3.22,191.43,M,41.914,M,,*4B
$GPRMC,180443,A,5004.0581,N,01954.4721,E,2.3942,193.134,041218,,*2E
$GPGSA,A,2,15,74,75,,,,,,,,,,,,,,,,,,,,,,,,,,,,,,,,,,,,,,,,,,,,,,,,3.4,3.2,1.0*31
$GPZDA,180444.00,04,12,2018,00,00*67
$GPGGA,180444,5004.0590,N,01954.4726,E,1,03,3.22,193.59,M,41.914,M,,*42
$GPRMC,180444,A,5004.0590,N,01954.4726,E,0.6248,151.009,041218,,*29
$GPGSA,A,2,15,74,75,,,,,,,,,,,,,,,,,,,,,,,,,,,,,,,,,,,,,,,,,,,,,,,,3.4,3.2,1.0*31
$GPZDA,180445.00,04,12,2018,00,00*66
$GPGGA,180445,5004.0595,N,01954.4732,E,1,03,3.21,191.05,M,41.914,M,,*4B
$GPRMC,180445,A,5004.0595,N,01954.4732,E,0.7974,160.352,041218,,*22
$GPGSA,A,2,15,74,75,,,,,,,,,,,,,,,,,,,,,,,,,,,,,,,,,,,,,,,,,,,,,,,,3.4,3.2,1.0*31
$GPZDA,180446.00,04,12,2018,00,00*65
$GPGGA,180446,5004.0609,N,01954.4752,E,1,03,3.21,188.25,M,41.914,M,,*42
$GPRMC,180446,A,5004.0609,N,01954.4752,E,1.4025,117.162,041218,,*2F
$GPGSA,A,2,15,74,75,,,,,,,,,,,,,,,,,,,,,,,,,,,,,,,,,,,,,,,,,,,,,,,,3.4,3.2,1.0*31
$GPZDA,180447.00,04,12,2018,00,00*64
$GPGGA,180447,5004.0624,N,01954.4751,E,1,03,3.21,186.34,M,41.914,M,,*41
$GPRMC,180447,A,5004.0624,N,01954.4751,E,0.4701,51.602,041218,,*10
$GPGSA,A,2,15,74,75,,,,,,,,,,,,,,,,,,,,,,,,,,,,,,,,,,,,,,,,,,,,,,,,3.4,3.2,1.0*31
$GPZDA,180448.00,04,12,2018,00,00*6B
$GPGGA,180448,5004.0626,N,01954.4750,E,1,03,3.21,184.57,M,41.914,M,,*4A
$GPRMC,180448,A,5004.0626,N,01954.4750,E,0.9580,251.742,041218,,*2D
$GPGSA,A,2,15,74,75,,,,,,,,,,,,,,,,,,,,,,,,,,,,,,,,,,,,,,,,,,,,,,,,3.4,3.2,1.0*31
$GPZDA,180449.00,04,12,2018,00,00*6A
$GPGGA,180449,5004.0629,N,01954.4753,E,1,03,3.21,182.79,M,41.914,M,,*4D
$GPRMC,180449,A,5004.0629,N,01954.4753,E,1.5234,240.394,041218,,*2A
$GPGSA,A,2,15,74,75,,,,,,,,,,,,,,,,,,,,,,,,,,,,,,,,,,,,,,,,,,,,,,,,3.4,3.2,1.0*31
$GPZDA,180450.00,04,12,2018,00,00*62
$GPGGA,180450,5004.0618,N,01954.4744,E,1,03,3.21,184.70,M,41.914,M,,*4E
$GPRMC,180450,A,5004.0618,N,01954.4744,E,1.8178,235.070,041218,,*2B
$GPGSA,A,2,15,74,75,,,,,,,,,,,,,,,,,,,,,,,,,,,,,,,,,,,,,,,,,,,,,,,,3.4,3.2,1.0*31
$GPZDA,180451.00,04,12,2018,00,00*63
$GPGGA,180451,5004.0613,N,01954.4722,E,1,03,3.21,188.31,M,41.914,M,,*4D
$GPRMC,180451,A,5004.0613,N,01954.4722,E,2.2369,276.913,041218,,*21
$GPGSA,A,2,15,74,75,,,,,,,,,,,,,,,,,,,,,,,,,,,,,,,,,,,,,,,,,,,,,,,,3.4,3.2,1.0*31
$GPZDA,180452.00,04,12,2018,00,00*60
$GPGGA,180452,5004.0633,N,01954.4722,E,1,03,3.21,190.45,M,41.914,M,,*46
$GPRMC,180452,A,5004.0633,N,01954.4722,E,3.8187,338.301,041218,,*2B
$GPGSA,A,2,15,74,75,,,,,,,,,,,,,,,,,,,,,,,,,,,,,,,,,,,,,,,,,,,,,,,,3.4,3.2,1.0*31
$GPZDA,180453.00,04,12,2018,00,00*61
$GPGGA,180453,5004.0648,N,01954.4749,E,1,03,3.21,189.05,M,41.914,M,,*4A
$GPRMC,180453,A,5004.0648,N,01954.4749,E,4.2614,3.607,041218,,*23
$GPGSA,A,2,15,74,75,,,,,,,,,,,,,,,,,,,,,,,,,,,,,,,,,,,,,,,,,,,,,,,,3.4,3.2,1.0*31
$GPZDA,180454.00,04,12,2018,00,00*66
$GPGGA,180454,5004.0610,N,01954.4693,E,1,03,3.21,187.23,M,41.914,M,,*4C
$GPRMC,180454,A,5004.0610,N,01954.4693,E,8.3405,251.276,041218,,*27
$GPGSA,A,2,15,74,75,,,,,,,,,,,,,,,,,,,,,,,,,,,,,,,,,,,,,,,,,,,,,,,,3.4,3.2,1.0*31
$GPZDA,180455.00,04,12,2018,00,00*67
$GPGGA,180455,5004.0640,N,01954.4707,E,1,03,3.21,187.45,M,41.914,M,,*44
$GPRMC,180455,A,5004.0640,N,01954.4707,E,3.8765,282.544,041218,,*22
$GPGSA,A,2,15,74,75,,,,,,,,,,,,,,,,,,,,,,,,,,,,,,,,,,,,,,,,,,,,,,,,3.4,3.2,1.0*31
$GPZDA,180456.00,04,12,2018,00,00*64
$GPGGA,180456,5004.0643,N,01954.4724,E,1,03,3.21,185.23,M,41.914,M,,*47
$GPRMC,180456,A,5004.0643,N,01954.4724,E,1.5561,286.536,041218,,*2B
$GPGSA,A,2,15,74,75,,,,,,,,,,,,,,,,,,,,,,,,,,,,,,,,,,,,,,,,,,,,,,,,3.4,3.2,1.0*31
$GPZDA,180457.00,04,12,2018,00,00*65
$GPGGA,180457,5004.0692,N,01954.4708,E,1,03,3.21,186.49,M,41.914,M,,*4B
$GPRMC,180457,A,5004.0692,N,01954.4708,E,6.0645,343.363,041218,,*21
$GPGSA,A,2,15,74,75,,,,,,,,,,,,,,,,,,,,,,,,,,,,,,,,,,,,,,,,,,,,,,,,3.4,3.2,1.0*31
$GPZDA,180458.00,04,12,2018,00,00*6A
$GPGGA,180458,5004.0711,N,01954.4716,E,1,03,3.21,183.81,M,41.914,M,,*40
$GPRMC,180458,A,5004.0711,N,01954.4716,E,5.4301,348.440,041218,,*24
$GPGSA,A,2,15,74,75,,,,,,,,,,,,,,,,,,,,,,,,,,,,,,,,,,,,,,,,,,,,,,,,3.4,3.2,1.0*31
$GPZDA,180459.00,04,12,2018,00,00*6B
$GPGGA,180459,5004.0722,N,01954.4735,E,1,03,3.21,181.58,M,41.914,M,,*46
$GPRMC,180459,A,5004.0722,N,01954.4735,E,3.8793,359.035,041218,,*27
$GPGSA,A,2,15,74,75,,,,,,,,,,,,,,,,,,,,,,,,,,,,,,,,,,,,,,,,,,,,,,,,3.4,3.2,1.0*31
$GPZDA,180500.00,04,12,2018,00,00*66
$GPGGA,180500,5004.0742,N,01954.4746,E,1,03,3.20,181.01,M,41.914,M,,*44
$GPRMC,180500,A,5004.0742,N,01954.4746,E,4.6783,15.278,041218,,*10
$GPGSA,A,2,15,74,75,,,,,,,,,,,,,,,,,,,,,,,,,,,,,,,,,,,,,,,,,,,,,,,,3.4,3.2,1.0*31
$GPZDA,180501.00,04,12,2018,00,00*67
$GPGGA,180501,5004.0676,N,01954.4518,E,1,03,3.20,199.90,M,41.914,M,,*4B
$GPRMC,180501,A,5004.0676,N,01954.4518,E,4.1450,10.866,041218,,*14
$GPGSA,A,2,15,74,75,,,,,,,,,,,,,,,,,,,,,,,,,,,,,,,,,,,,,,,,,,,,,,,,3.4,3.2,1.0*31
$GPZDA,180502.00,04,12,2018,00,00*64
$GPGGA,180502,5004.0716,N,01954.4512,E,1,03,3.79,197.48,M,41.914,M,,*42
$GPRMC,180502,A,5004.0716,N,01954.4512,E,7.7987,21.376,041218,,*10
$GPGSA,A,2,15,74,75,,,,,,,,,,,,,,,,,,,,,,,,,,,,,,,,,,,,,,,,,,,,,,,,3.9,3.8,1.0*36
$GPZDA,180503.00,04,12,2018,00,00*65
$GPGGA,180503,5004.0732,N,01954.4505,E,1,03,3.79,196.38,M,41.914,M,,*45
$GPRMC,180503,A,5004.0732,N,01954.4505,E,6.2965,16.004,041218,,*1B
$GPGSA,A,2,15,74,75,,,,,,,,,,,,,,,,,,,,,,,,,,,,,,,,,,,,,,,,,,,,,,,,3.9,3.8,1.0*36
$GPZDA,180504.00,04,12,2018,00,00*62
$GPGGA,180504,5004.0750,N,01954.4509,E,1,03,3.79,195.72,M,41.914,M,,*47
$GPRMC,180504,A,5004.0750,N,01954.4509,E,6.1723,14.784,041218,,*16
$GPGSA,A,2,15,74,75,,,,,,,,,,,,,,,,,,,,,,,,,,,,,,,,,,,,,,,,,,,,,,,,3.9,3.8,1.0*36
$GPZDA,180505.00,04,12,2018,00,00*63
$GPGGA,180505,5004.0771,N,01954.4507,E,1,03,3.79,196.26,M,41.914,M,,*49
$GPRMC,180505,A,5004.0771,N,01954.4507,E,6.6408,355.927,041218,,*26
$GPGSA,A,2,15,74,75,,,,,,,,,,,,,,,,,,,,,,,,,,,,,,,,,,,,,,,,,,,,,,,,3.9,3.8,1.0*36
$GPZDA,180506.00,04,12,2018,00,00*60
$GPGGA,180506,5004.0799,N,01954.4512,E,1,03,3.78,199.23,M,41.914,M,,*43
$GPRMC,180506,A,5004.0799,N,01954.4512,E,7.4835,355.334,041218,,*2E
$GPGSA,A,2,15,74,75,,,,,,,,,,,,,,,,,,,,,,,,,,,,,,,,,,,,,,,,,,,,,,,,3.9,3.8,1.0*36
$GPZDA,180507.00,04,12,2018,00,00*61
$GPGGA,180507,5004.0814,N,01954.4510,E,1,03,3.78,197.55,M,41.914,M,,*45
$GPRMC,180507,A,5004.0814,N,01954.4510,E,7.0230,354.446,041218,,*2F
$GPGSA,A,2,15,74,75,,,,,,,,,,,,,,,,,,,,,,,,,,,,,,,,,,,,,,,,,,,,,,,,3.9,3.8,1.0*36
$GPRMC,180508,A,5004.0834,N,01954.4507,E,7.0230,354.446,041218,,*24
$GPGSA,A,1,15,74,75,,,,,,,,,,,,,,,,,,,,,,,,,,,,,,,,,,,,,,,,,,,,,,,,,,,*37
$GPRMC,180509,A,5004.0853,N,01954.4504,E,7.0230,354.446,041218,,*27
$GPGSA,A,1,15,74,75,,,,,,,,,,,,,,,,,,,,,,,,,,,,,,,,,,,,,,,,,,,,,,,,,,,*37
$GPRMC,180510,A,5004.0873,N,01954.4501,E,7.0230,354.446,041218,,*28
$GPGSA,A,1,15,74,75,,,,,,,,,,,,,,,,,,,,,,,,,,,,,,,,,,,,,,,,,,,,,,,,,,,*37
$GPRMC,180511,A,5004.0892,N,01954.4498,E,7.0230,354.446,041218,,*27
$GPGSA,A,1,15,74,75,,,,,,,,,,,,,,,,,,,,,,,,,,,,,,,,,,,,,,,,,,,,,,,,,,,*37
$GPRMC,180512,A,5004.0911,N,01954.4495,E,7.0230,354.446,041218,,*23
$GPGSA,A,1,15,74,75,,,,,,,,,,,,,,,,,,,,,,,,,,,,,,,,,,,,,,,,,,,,,,,,,,,*37
$GPZDA,180513.00,04,12,2018,00,00*64
$GPGGA,180513,5004.0837,N,01954.4529,E,1,03,99.99,211.40,M,41.913,M,,*79
$GPRMC,180513,A,5004.0837,N,01954.4529,E,2.3990,52.309,041218,,*1F
$GPGSA,A,2,15,74,75,,,,,,,,,,,,,,,,,,,,,,,,,,,,,,,,,,,,,,,,,,,,,,,,100.0,100.0,100.0*37
$GPZDA,180514.00,04,12,2018,00,00*63
$GPGGA,180514,5004.0785,N,01954.4527,E,1,03,3.77,209.52,M,41.914,M,,*48
$GPRMC,180514,A,5004.0785,N,01954.4527,E,2.2993,131.251,041218,,*2A
$GPGSA,A,2,15,74,75,,,,,,,,,,,,,,,,,,,,,,,,,,,,,,,,,,,,,,,,,,,,,,,,3.9,3.8,1.0*36
$GPZDA,180515.00,04,12,2018,00,00*62
$GPGGA,180515,5004.0736,N,01954.4528,E,1,03,3.77,211.74,M,41.914,M,,*43
$GPRMC,180515,A,5004.0736,N,01954.4528,E,4.1835,179.783,041218,,*22
$GPGSA,A,2,15,74,75,,,,,,,,,,,,,,,,,,,,,,,,,,,,,,,,,,,,,,,,,,,,,,,,3.9,3.8,1.0*36
$GPZDA,180516.00,04,12,2018,00,00*61
$GPGGA,180516,5004.0694,N,01954.4531,E,1,03,3.77,205.34,M,41.914,M,,*40
$GPRMC,180516,A,5004.0694,N,01954.4531,E,5.5581,173.887,041218,,*26
$GPGSA,A,2,15,74,75,,,,,,,,,,,,,,,,,,,,,,,,,,,,,,,,,,,,,,,,,,,,,,,,3.9,3.8,1.0*36
$GPRMC,180517,A,5004.0679,N,01954.4534,E,5.5581,173.887,041218,,*21
$GPGSA,A,1,15,74,75,,,,,,,,,,,,,,,,,,,,,,,,,,,,,,,,,,,,,,,,,,,,,,,,,,,*37
$GPRMC,180518,A,5004.0664,N,01954.4536,E,5.5581,173.887,041218,,*20
$GPGSA,A,1,15,74,75,,,,,,,,,,,,,,,,,,,,,,,,,,,,,,,,,,,,,,,,,,,,,,,,,,,*37
$GPRMC,180519,A,5004.0648,N,01954.4539,E,5.5581,173.887,041218,,*20
$GPGSA,A,1,15,74,75,,,,,,,,,,,,,,,,,,,,,,,,,,,,,,,,,,,,,,,,,,,,,,,,,,,*37
$GPRMC,180520,A,5004.0633,N,01954.4542,E,5.5581,173.887,041218,,*2A
$GPGSA,A,1,15,74,75,,,,,,,,,,,,,,,,,,,,,,,,,,,,,,,,,,,,,,,,,,,,,,,,,,,*37
$GPRMC,180521,A,5004.0618,N,01954.4544,E,5.5581,173.887,041218,,*24
$GPGSA,A,1,15,74,75,,,,,,,,,,,,,,,,,,,,,,,,,,,,,,,,,,,,,,,,,,,,,,,,,,,*37
$GPZDA,180522.00,04,12,2018,00,00*66
$GPGGA,180522,5004.0698,N,01954.4548,E,1,03,99.99,224.42,M,41.914,M,,*74
$GPRMC,180522,A,5004.0698,N,01954.4548,E,1.2030,121.384,041218,,*20
$GPGSA,A,2,15,74,75,,,,,,,,,,,,,,,,,,,,,,,,,,,,,,,,,,,,,,,,,,,,,,,,100.0,100.0,100.0*37
$GPZDA,180523.00,04,12,2018,00,00*67
$GPGGA,180523,5004.0605,N,01954.4512,E,1,03,3.76,222.23,M,41.914,M,,*4D
$GPRMC,180523,A,5004.0605,N,01954.4512,E,6.2060,178.915,041218,,*26
$GPGSA,A,2,15,74,75,,,,,,,,,,,,,,,,,,,,,,,,,,,,,,,,,,,,,,,,,,,,,,,,3.9,3.8,1.0*36
$GPRMC,180524,A,5004.0588,N,01954.4512,E,6.2060,178.915,041218,,*27
$GPGSA,A,1,15,74,75,,,,,,,,,,,,,,,,,,,,,,,,,,,,,,,,,,,,,,,,,,,,,,,,,,,*37
$GPRMC,180525,A,5004.0571,N,01954.4513,E,6.2060,178.915,041218,,*21
$GPGSA,A,1,15,74,75,,,,,,,,,,,,,,,,,,,,,,,,,,,,,,,,,,,,,,,,,,,,,,,,,,,*37
$GPRMC,180526,A,5004.0554,N,01954.4513,E,6.2060,178.915,041218,,*25
$GPGSA,A,1,15,74,75,,,,,,,,,,,,,,,,,,,,,,,,,,,,,,,,,,,,,,,,,,,,,,,,,,,*37
$GPZDA,180527.00,04,12,2018,00,00*63
$GPGGA,180527,5004.0558,N,01954.4493,E,1,03,99.99,225.04,M,41.914,M,,*7A
$GPRMC,180527,A,5004.0558,N,01954.4493,E,4.7566,190.504,041218,,*2F
$GPGSA,A,2,15,74,75,,,,,,,,,,,,,,,,,,,,,,,,,,,,,,,,,,,,,,,,,,,,,,,,100.0,100.0,100.0*37
$GPZDA,180528.00,04,12,2018,00,00*6C
$GPGGA,180528,5004.0574,N,01954.4478,E,1,03,3.75,224.88,M,41.914,M,,*4A
$GPRMC,180528,A,5004.0574,N,01954.4478,E,3.3319,220.256,041218,,*2E
$GPGSA,A,2,15,74,75,,,,,,,,,,,,,,,,,,,,,,,,,,,,,,,,,,,,,,,,,,,,,,,,3.9,3.8,1.0*36
$GPRMC,180529,A,5004.0567,N,01954.4469,E,3.3319,220.256,041218,,*2D
$GPGSA,A,1,15,74,75,,,,,,,,,,,,,,,,,,,,,,,,,,,,,,,,,,,,,,,,,,,,,,,,,,,*37
$GPRMC,180530,A,5004.0560,N,01954.4459,E,3.3319,220.256,041218,,*21
$GPGSA,A,1,15,74,75,,,,,,,,,,,,,,,,,,,,,,,,,,,,,,,,,,,,,,,,,,,,,,,,,,,*37
$GPZDA,180531.00,04,12,2018,00,00*64
$GPGGA,180531,5004.0642,N,01954.4496,E,1,03,99.99,228.88,M,41.914,M,,*79
$GPRMC,180531,A,5004.0642,N,01954.4496,E,1.8125,14.862,041218,,*1C
$GPGSA,A,2,15,74,75,,,,,,,,,,,,,,,,,,,,,,,,,,,,,,,,,,,,,,,,,,,,,,,,100.0,100.0,100.0*37
$GPZDA,180532.00,04,12,2018,00,00*67
$GPGGA,180532,5004.0629,N,01954.4505,E,1,03,3.18,225.53,M,41.914,M,,*4D
$GPRMC,180532,A,5004.0629,N,01954.4505,E,1.6445,70.898,041218,,*13
$GPGSA,A,2,15,74,75,,,,,,,,,,,,,,,,,,,,,,,,,,,,,,,,,,,,,,,,,,,,,,,,3.3,3.2,1.0*36
$GPZDA,180533.00,04,12,2018,00,00*66
$GPGGA,180533,5004.0646,N,01954.4525,E,1,03,3.18,223.40,M,41.914,M,,*43
$GPRMC,180533,A,5004.0646,N,01954.4525,E,2.5441,46.595,041218,,*18
$GPGSA,A,2,15,74,75,,,,,,,,,,,,,,,,,,,,,,,,,,,,,,,,,,,,,,,,,,,,,,,,3.3,3.2,1.0*36
$GPZDA,180534.00,04,12,2018,00,00*61
$GPGGA,180534,5004.0635,N,01954.4493,E,1,04,3.18,216.89,M,41.914,M,,*48
$GPRMC,180534,A,5004.0635,N,01954.4493,E,1.0079,351.317,041218,,*27
$GPGSA,A,3,15,74,75,,,,,,,,,,,,,,,,,,,,,,,,,,,,,,,,,,,,,,,,,,,,,,,,3.3,3.2,1.0*37
$GPZDA,180535.00,04,12,2018,00,00*60
$GPGGA,180535,5004.0628,N,01954.4475,E,1,04,2.19,218.39,M,41.914,M,,*48
$GPRMC,180535,A,5004.0628,N,01954.4475,E,0.2685,316.077,041218,,*22
$GPGSA,A,3,15,74,75,,,,,,,,,,,,,,,,,,,,,,,,,,,,,,,,,,,,,,,,,,,,,,,,7.1,2.2,6.8*3F
$GPZDA,180536.00,04,12,2018,00,00*63
$GPGGA,180536,5004.0626,N,01954.4457,E,1,04,2.19,218.94,M,41.914,M,,*42
$GPRMC,180536,A,5004.0626,N,01954.4457,E,0.7538,193.444,041218,,*24
$GPGSA,A,3,15,74,75,,,,,,,,,,,,,,,,,,,,,,,,,,,,,,,,,,,,,,,,,,,,,,,,7.1,2.2,6.8*3F
$GPZDA,180537.00,04,12,2018,00,00*62
$GPGGA,180537,5004.0635,N,01954.4445,E,1,04,2.19,219.13,M,41.914,M,,*4C
$GPRMC,180537,A,5004.0635,N,01954.4445,E,1.1955,43.391,041218,,*17
$GPGSA,A,3,15,74,75,,,,,,,,,,,,,,,,,,,,,,,,,,,,,,,,,,,,,,,,,,,,,,,,7.1,2.2,6.8*3F
$GPZDA,180538.00,04,12,2018,00,00*6D
$GPGGA,180538,5004.0637,N,01954.4432,E,1,04,2.19,218.71,M,41.914,M,,*44
$GPRMC,180538,A,5004.0637,N,01954.4432,E,0.0373,297.553,041218,,*27
$GPGSA,A,3,15,74,75,,,,,,,,,,,,,,,,,,,,,,,,,,,,,,,,,,,,,,,,,,,,,,,,7.1,2.2,6.8*3F
$GPZDA,180539.00,04,12,2018,00,00*6C
$GPGGA,180539,5004.0639,N,01954.4428,E,1,04,2.19,218.54,M,41.914,M,,*47
$GPRMC,180539,A,5004.0639,N,01954.4428,E,1.6381,156.584,041218,,*2D
$GPGSA,A,3,15,74,75,,,,,,,,,,,,,,,,,,,,,,,,,,,,,,,,,,,,,,,,,,,,,,,,7.1,2.2,6.8*3F
$GPZDA,180540.00,04,12,2018,00,00*62
$GPGGA,180540,5004.0645,N,01954.4424,E,1,04,2.19,218.74,M,41.914,M,,*4C
$GPRMC,180540,A,5004.0645,N,01954.4424,E,1.1053,175.457,041218,,*21
$GPGSA,A,3,15,74,75,,,,,,,,,,,,,,,,,,,,,,,,,,,,,,,,,,,,,,,,,,,,,,,,7.1,2.2,6.8*3F
$GPZDA,180541.00,04,12,2018,00,00*63
$GPGGA,180541,5004.0655,N,01954.4416,E,1,03,2.19,217.55,M,41.914,M,,*46
$GPRMC,180541,A,5004.0655,N,01954.4416,E,0.6652,197.226,041218,,*2D
$GPGSA,A,2,15,74,75,,,,,,,,,,,,,,,,,,,,,,,,,,,,,,,,,,,,,,,,,,,,,,,,7.1,2.2,6.8*3E
$GPZDA,180542.00,04,12,2018,00,00*60
$GPGGA,180542,5004.0666,N,01954.4412,E,1,03,3.72,219.00,M,41.914,M,,*43
$GPRMC,180542,A,5004.0666,N,01954.4412,E,0.3759,217.189,041218,,*28
$GPGSA,A,2,15,74,75,,,,,,,,,,,,,,,,,,,,,,,,,,,,,,,,,,,,,,,,,,,,,,,,3.9,3.7,1.0*39
$GPZDA,180543.00,04,12,2018,00,00*61
$GPGGA,180543,5004.0670,N,01954.4415,E,1,03,3.72,217.48,M,41.914,M,,*40
$GPRMC,180543,A,5004.0670,N,01954.4415,E,1.4382,127.227,041218,,*2A
$GPGSA,A,2,15,74,75,,,,,,,,,,,,,,,,,,,,,,,,,,,,,,,,,,,,,,,,,,,,,,,,3.9,3.7,1.0*39
$GPZDA,180544.00,04,12,2018,00,00*66
$GPGGA,180544,5004.0670,N,01954.4410,E,1,03,3.72,216.43,M,41.914,M,,*48
$GPRMC,180544,A,5004.0670,N,01954.4410,E,0.7744,193.967,041218,,*24
$GPGSA,A,2,15,74,75,,,,,,,,,,,,,,,,,,,,,,,,,,,,,,,,,,,,,,,,,,,,,,,,3.9,3.7,1.0*39
$GPZDA,180545.00,04,12,2018,00,00*67
$GPGGA,180545,5004.0671,N,01954.4405,E,1,03,3.72,213.00,M,41.914,M,,*4E
$GPRMC,180545,A,5004.0671,N,01954.4405,E,0.6600,213.208,041218,,*29
$GPGSA,A,2,15,74,75,,,,,,,,,,,,,,,,,,,,,,,,,,,,,,,,,,,,,,,,,,,,,,,,3.9,3.7,1.0*39
$GPZDA,180546.00,04,12,2018,00,00*64
$GPGGA,180546,5004.0669,N,01954.4400,E,1,03,3.72,210.04,M,41.914,M,,*46
$GPRMC,180546,A,5004.0669,N,01954.4400,E,0.9307,187.943,041218,,*21
$GPGSA,A,2,15,74,75,,,,,,,,,,,,,,,,,,,,,,,,,,,,,,,,,,,,,,,,,,,,,,,,3.9,3.7,1.0*39
$GPZDA,180547.00,04,12,2018,00,00*65
$GPGGA,180547,5004.0679,N,01954.4399,E,1,03,3.72,208.24,M,41.914,M,,*4A
$GPRMC,180547,A,5004.0679,N,01954.4399,E,1.0059,65.870,041218,,*1A
$GPGSA,A,2,15,74,75,,,,,,,,,,,,,,,,,,,,,,,,,,,,,,,,,,,,,,,,,,,,,,,,3.9,3.7,1.0*39
$GPZDA,180548.00,04,12,2018,00,00*6A
$GPGGA,180548,5004.0680,N,01954.4397,E,1,04,3.71,210.85,M,41.914,M,,*4B
$GPRMC,180548,A,5004.0680,N,01954.4397,E,0.8996,67.897,041218,,*15
$GPGSA,A,3,15,74,75,,,,,,,,,,,,,,,,,,,,,,,,,,,,,,,,,,,,,,,,,,,,,,,,3.9,3.7,1.0*38
$GPZDA,180549.00,04,12,2018,00,00*6B
$GPGGA,180549,5004.0684,N,01954.4400,E,1,03,2.19,209.58,M,41.914,M,,*47
$GPRMC,180549,A,5004.0684,N,01954.4400,E,1.1593,33.512,041218,,*19
$GPGSA,A,2,15,74,75,,,,,,,,,,,,,,,,,,,,,,,,,,,,,,,,,,,,,,,,,,,,,,,,7.2,2.2,6.8*3D
$GPZDA,180550.00,04,12,2018,00,00*63
$GPGGA,180550,5004.0689,N,01954.4400,E,1,03,3.71,206.88,M,41.914,M,,*4F
$GPRMC,180550,A,5004.0689,N,01954.4400,E,1.5362,354.919,041218,,*25
$GPGSA,A,2,15,74,75,,,,,,,,,,,,,,,,,,,,,,,,,,,,,,,,,,,,,,,,,,,,,,,,3.8,3.7,1.0*38
$GPZDA,180551.00,04,12,2018,00,00*62
$GPGGA,180551,5004.0687,N,01954.4400,E,1,03,3.71,205.82,M,41.914,M,,*49
$GPRMC,180551,A,5004.0687,N,01954.4400,E,0.7174,33.218,041218,,*14
$GPGSA,A,2,15,74,75,,,,,,,,,,,,,,,,,,,,,,,,,,,,,,,,,,,,,,,,,,,,,,,,3.8,3.7,1.0*38
$GPZDA,180552.00,04,12,2018,00,00*61
$GPGGA,180552,5004.0692,N,01954.4399,E,1,03,3.71,209.55,M,41.914,M,,*4F
$GPRMC,180552,A,5004.0692,N,01954.4399,E,1.1997,324.294,041218,,*27
$GPGSA,A,2,15,74,75,,,,,,,,,,,,,,,,,,,,,,,,,,,,,,,,,,,,,,,,,,,,,,,,3.8,3.7,1.0*38
$GPZDA,180553.00,04,12,2018,00,00*60
$GPGGA,180553,5004.0708,N,01954.4409,E,1,03,3.71,207.65,M,41.914,M,,*4F
$GPRMC,180553,A,5004.0708,N,01954.4409,E,2.3590,32.193,041218,,*10
$GPGSA,A,2,15,74,75,,,,,,,,,,,,,,,,,,,,,,,,,,,,,,,,,,,,,,,,,,,,,,,,3.8,3.7,1.0*38
$GPZDA,180554.00,04,12,2018,00,00*67
$GPGGA,180554,5004.0705,N,01954.4404,E,1,03,3.70,203.88,M,41.914,M,,*4E
$GPRMC,180554,A,5004.0705,N,01954.4404,E,1.0949,0.811,041218,,*2D
$GPGSA,A,2,15,74,75,,,,,,,,,,,,,,,,,,,,,,,,,,,,,,,,,,,,,,,,,,,,,,,,3.8,3.7,1.0*38
$GPZDA,180555.00,04,12,2018,00,00*66
$GPGGA,180555,5004.0718,N,01954.4410,E,1,03,3.70,200.90,M,41.914,M,,*4C
$GPRMC,180555,A,5004.0718,N,01954.4410,E,2.2290,32.182,041218,,*19
$GPGSA,A,2,15,74,75,,,,,,,,,,,,,,,,,,,,,,,,,,,,,,,,,,,,,,,,,,,,,,,,3.8,3.7,1.0*38
$GPZDA,180556.00,04,12,2018,00,00*65
$GPGGA,180556,5004.0704,N,01954.4405,E,1,03,3.70,195.06,M,41.914,M,,*46
$GPRMC,180556,A,5004.0704,N,01954.4405,E,0.4592,8.051,041218,,*24
$GPGSA,A,2,15,74,75,,,,,,,,,,,,,,,,,,,,,,,,,,,,,,,,,,,,,,,,,,,,,,,,3.8,3.7,1.0*38
$GPZDA,180557.00,04,12,2018,00,00*64
$GPGGA,180557,5004.0695,N,01954.4413,E,1,03,3.70,195.18,M,41.914,M,,*46
$GPRMC,180557,A,5004.0695,N,01954.4413,E,1.8537,107.015,041218,,*27
$GPGSA,A,2,15,74,75,,,,,,,,,,,,,,,,,,,,,,,,,,,,,,,,,,,,,,,,,,,,,,,,3.8,3.7,1.0*38
$GPZDA,180558.00,04,12,2018,00,00*6B
$GPGGA,180558,5004.0691,N,01954.4414,E,1,03,3.70,195.29,M,41.914,M,,*48
$GPRMC,180558,A,5004.0691,N,01954.4414,E,0.7844,150.523,041218,,*2E
$GPGSA,A,2,15,74,75,,,,,,,,,,,,,,,,,,,,,,,,,,,,,,,,,,,,,,,,,,,,,,,,3.8,3.7,1.0*38
$GPZDA,180559.00,04,12,2018,00,00*6A
$GPGGA,180559,5004.0686,N,01954.4416,E,1,03,3.70,195.55,M,41.914,M,,*46
$GPRMC,180559,A,5004.0686,N,01954.4416,E,1.2935,167.937,041218,,*25
$GPGSA,A,2,15,74,75,,,,,,,,,,,,,,,,,,,,,,,,,,,,,,,,,,,,,,,,,,,,,,,,3.8,3.7,1.0*38
$GPZDA,180600.00,04,12,2018,00,00*65
$GPGGA,180600,5004.0693,N,01954.4435,E,1,04,3.69,204.14,M,41.914,M,,*4D
$GPRMC,180600,A,5004.0693,N,01954.4435,E,0.5986,28.627,041218,,*15
$GPGSA,A,3,15,74,75,,,,,,,,,,,,,,,,,,,,,,,,,,,,,,,,,,,,,,,,,,,,,,,,3.8,3.7,1.0*39
$GPZDA,180601.00,04,12,2018,00,00*64
$GPGGA,180601,5004.0697,N,01954.4440,E,1,04,2.19,201.71,M,41.914,M,,*4A
$GPRMC,180601,A,5004.0697,N,01954.4440,E,1.1721,21.383,041218,,*16
$GPGSA,A,3,15,74,75,,,,,,,,,,,,,,,,,,,,,,,,,,,,,,,,,,,,,,,,,,,,,,,,7.2,2.2,6.9*3D
$GPZDA,180602.00,04,12,2018,00,00*67
$GPGGA,180602,5004.0700,N,01954.4445,E,1,04,2.19,202.55,M,41.914,M,,*46
$GPRMC,180602,A,5004.0700,N,01954.4445,E,0.5928,6.382,041218,,*29
$GPGSA,A,3,15,74,75,,,,,,,,,,,,,,,,,,,,,,,,,,,,,,,,,,,,,,,,,,,,,,,,7.2,2.2,6.9*3D
$GPZDA,180603.00,04,12,2018,00,00*66
$GPGGA,180603,5004.0705,N,01954.4450,E,1,03,2.19,201.50,M,41.914,M,,*47
$GPRMC,180603,A,5004.0705,N,01954.4450,E,1.1371,62.929,041218,,*13
$GPGSA,A,2,15,74,75,,,,,,,,,,,,,,,,,,,,,,,,,,,,,,,,,,,,,,,,,,,,,,,,7.2,2.2,6.9*3C
$GPRMC,180604,A,5004.0707,N,01954.4455,E,1.1371,62.929,041218,,*13
$GPGSA,A,1,15,74,75,,,,,,,,,,,,,,,,,,,,,,,,,,,,,,,,,,,,,,,,,,,,,,,,,,,*37
$GPGSV,2,1,07,01,-91,000,07,15,61,242,23,17,45,104,33,19,-91,000,15*73
$GPGSV,2,2,07,24,47,288,21,28,-91,000,24,74,59,042,31*68
$GPRMC,180605,A,5004.0708,N,01954.4459,E,1.1371,62.929,041218,,*11
$GPGSA,A,1,,,,,,,,,,,,,,,,,,,,,,,,,,,,,,,,,,,,,,,,,,,,,,,,,,,,,,*32
$GPRMC,180606,A,5004.0710,N,01954.4463,E,1.1371,62.929,041218,,*12
$GPGSA,A,1,,,,,,,,,,,,,,,,,,,,,,,,,,,,,,,,,,,,,,,,,,,,,,,,,,,,,,*32
$GPRMC,180607,A,5004.0711,N,01954.4468,E,1.1371,62.929,041218,,*19
$GPGSA,A,1,,,,,,,,,,,,,,,,,,,,,,,,,,,,,,,,,,,,,,,,,,,,,,,,,,,,,,*32
$GPZDA,180608.00,04,12,2018,00,00*6D
$GPGGA,180608,5004.0668,N,01954.4447,E,1,03,99.99,204.63,M,41.914,M,,*7F
$GPRMC,180608,A,5004.0668,N,01954.4447,E,3.6248,189.223,041218,,*2F
$GPGSA,A,2,,,,,,,,,,,,,,,,,,,,,,,,,,,,,,,,,,,,,,,,,,,,,,,,,,,100.0,100.0,100.0*32
$GPZDA,180609.00,04,12,2018,00,00*6C
$GPGGA,180609,5004.0667,N,01954.4443,E,1,04,3.16,202.15,M,41.914,M,,*41
$GPRMC,180609,A,5004.0667,N,01954.4443,E,2.8965,191.652,041218,,*25
$GPGSA,A,3,,,,,,,,,,,,,,,,,,,,,,,,,,,,,,,,,,,,,,,,,,,,,,,,,,,3.3,3.2,1.0*32
$GPZDA,180610.00,04,12,2018,00,00*64
$GPGGA,180610,5004.0677,N,01954.4447,E,1,04,2.19,202.90,M,41.914,M,,*4F
$GPRMC,180610,A,5004.0677,N,01954.4447,E,1.1323,140.408,041218,,*2B
$GPGSA,A,3,,,,,,,,,,,,,,,,,,,,,,,,,,,,,,,,,,,,,,,,,,,,,,,,,,,7.2,2.2,6.9*38
$GPZDA,180611.00,04,12,2018,00,00*65
$GPGGA,180611,5004.0690,N,01954.4442,E,1,04,2.19,202.95,M,41.914,M,,*47
$GPRMC,180611,A,5004.0690,N,01954.4442,E,0.7428,27.356,041218,,*11
$GPGSA,A,3,,,,,,,,,,,,,,,,,,,,,,,,,,,,,,,,,,,,,,,,,,,,,,,,,,,7.3,2.2,6.9*39
$GPZDA,180612.00,04,12,2018,00,00*66
$GPGGA,180612,5004.0700,N,01954.4439,E,1,04,2.19,203.23,M,41.914,M,,*4C
$GPRMC,180612,A,5004.0700,N,01954.4439,E,1.1048,12.875,041218,,*1F
$GPGSA,A,3,,,,,,,,,,,,,,,,,,,,,,,,,,,,,,,,,,,,,,,,,,,,,,,,,,,7.3,2.2,6.9*39
$GPZDA,180613.00,04,12,2018,00,00*67
$GPGGA,180613,5004.0698,N,01954.4437,E,1,04,2.19,202.81,M,41.914,M,,*4A
$GPRMC,180613,A,5004.0698,N,01954.4437,E,0.3483,290.714,041218,,*20
$GPGSA,A,3,,,,,,,,,,,,,,,,,,,,,,,,,,,,,,,,,,,,,,,,,,,,,,,,,,,7.3,2.2,6.9*39
$GPZDA,180614.00,04,12,2018,00,00*60
$GPGGA,180614,5004.0697,N,01954.4433,E,1,04,2.19,203.12,M,41.914,M,,*4D
$GPRMC,180614,A,5004.0697,N,01954.4433,E,1.3364,253.834,041218,,*21
$GPGSA,A,3,,,,,,,,,,,,,,,,,,,,,,,,,,,,,,,,,,,,,,,,,,,,,,,,,,,7.3,2.2,6.9*39
$GPZDA,180615.00,04,12,2018,00,00*61
$GPGGA,180615,5004.0696,N,01954.4440,E,1,04,2.19,202.96,M,41.914,M,,*44
$GPRMC,180615,A,5004.0696,N,01954.4440,E,1.5414,119.176,041218,,*21
$GPGSA,A,3,,,,,,,,,,,,,,,,,,,,,,,,,,,,,,,,,,,,,,,,,,,,,,,,,,,7.3,2.2,6.9*39
$GPZDA,180616.00,04,12,2018,00,00*62
$GPGGA,180616,5004.0702,N,01954.4445,E,1,04,2.19,202.36,M,41.914,M,,*44
$GPRMC,180616,A,5004.0702,N,01954.4445,E,1.7553,65.462,041218,,*11
$GPGSA,A,3,,,,,,,,,,,,,,,,,,,,,,,,,,,,,,,,,,,,,,,,,,,,,,,,,,,7.3,2.2,6.9*39
$GPZDA,180617.00,04,12,2018,00,00*63
$GPGGA,180617,5004.0702,N,01954.4448,E,1,03,2.19,202.26,M,41.914,M,,*4E
$GPRMC,180617,A,5004.0702,N,01954.4448,E,1.1645,53.488,041218,,*1E
$GPGSA,A,2,,,,,,,,,,,,,,,,,,,,,,,,,,,,,,,,,,,,,,,,,,,,,,,,,,,7.3,2.2,7.0*30
$GPZDA,180618.00,04,12,2018,00,00*6C
$GPGGA,180618,5004.0698,N,01954.4446,E,1,03,3.08,203.80,M,41.914,M,,*41
$GPRMC,180618,A,5004.0698,N,01954.4446,E,0.5579,55.785,041218,,*1C
$GPGSA,A,2,,,,,,,,,,,,,,,,,,,,,,,,,,,,,,,,,,,,,,,,,,,,,,,,,,,3.2,3.1,1.0*31
$GPZDA,180619.00,04,12,2018,00,00*6D
$GPGGA,180619,5004.0698,N,01954.4450,E,1,03,3.08,202.03,M,41.914,M,,*4D
$GPRMC,180619,A,5004.0698,N,01954.4450,E,0.9004,75.479,041218,,*1B
$GPGSA,A,2,,,,,,,,,,,,,,,,,,,,,,,,,,,,,,,,,,,,,,,,,,,,,,,,,,,3.2,3.1,1.0*31
$GPZDA,180620.00,04,12,2018,00,00*67
$GPGGA,180620,5004.0698,N,01954.4454,E,1,03,3.08,202.55,M,41.914,M,,*40
$GPRMC,180620,A,5004.0698,N,01954.4454,E,1.2717,61.608,041218,,*1B
$GPGSA,A,2,,,,,,,,,,,,,,,,,,,,,,,,,,,,,,,,,,,,,,,,,,,,,,,,,,,3.2,3.1,1.0*31
$GPZDA,180621.00,04,12,2018,00,00*66
